[
  {
    "district": "Южный",
    "region": "Адыгея",
    "region_type": "респ",
    "city": "Адыгейск",
    "city_type": "г",
    "latitude": "44.878414",
    "longitude": "39.190289"
  },
  {
    "district": "Южный",
    "region": "Адыгея",
    "region_type": "респ",
    "city": "Майкоп",
    "city_type": "г",
    "latitude": "44.6098268",
    "longitude": "40.1006606"
  },
  {
    "district": "Сибирский",
    "region": "Алтай",
    "region_type": "респ",
    "city": "Горно-Алтайск",
    "city_type": "г",
    "latitude": "51.9581028",
    "longitude": "85.9603235"
  },
  {
    "district": "Сибирский",
    "region": "Алтайский",
    "region_type": "край",
    "city": "Алейск",
    "city_type": "г",
    "latitude": "52.4922513",
    "longitude": "82.7793606"
  },
  {
    "district": "Сибирский",
    "region": "Алтайский",
    "region_type": "край",
    "city": "Барнаул",
    "city_type": "г",
    "latitude": "53.3479968",
    "longitude": "83.7798064"
  },
  {
    "district": "Сибирский",
    "region": "Алтайский",
    "region_type": "край",
    "city": "Белокуриха",
    "city_type": "г",
    "latitude": "51.996152",
    "longitude": "84.9839604"
  },
  {
    "district": "Сибирский",
    "region": "Алтайский",
    "region_type": "край",
    "city": "Бийск",
    "city_type": "г",
    "latitude": "52.5393864",
    "longitude": "85.2138453"
  },
  {
    "district": "Сибирский",
    "region": "Алтайский",
    "region_type": "край",
    "city": "Горняк",
    "city_type": "г",
    "latitude": "50.9979622",
    "longitude": "81.4643358"
  },
  {
    "district": "Сибирский",
    "region": "Алтайский",
    "region_type": "край",
    "city": "Заринск",
    "city_type": "г",
    "latitude": "53.7063476",
    "longitude": "84.9315081"
  },
  {
    "district": "Сибирский",
    "region": "Алтайский",
    "region_type": "край",
    "city": "Змеиногорск",
    "city_type": "г",
    "latitude": "51.1581094",
    "longitude": "82.1872547"
  },
  {
    "district": "Сибирский",
    "region": "Алтайский",
    "region_type": "край",
    "city": "Камень-на-Оби",
    "city_type": "г",
    "latitude": "53.7913974",
    "longitude": "81.3545053"
  },
  {
    "district": "Сибирский",
    "region": "Алтайский",
    "region_type": "край",
    "city": "Новоалтайск",
    "city_type": "г",
    "latitude": "53.4119759",
    "longitude": "83.9311069"
  },
  {
    "district": "Сибирский",
    "region": "Алтайский",
    "region_type": "край",
    "city": "Рубцовск",
    "city_type": "г",
    "latitude": "51.5012067",
    "longitude": "81.2078695"
  },
  {
    "district": "Сибирский",
    "region": "Алтайский",
    "region_type": "край",
    "city": "Славгород",
    "city_type": "г",
    "latitude": "52.999463",
    "longitude": "78.6459232"
  },
  {
    "district": "Сибирский",
    "region": "Алтайский",
    "region_type": "край",
    "city": "Яровое",
    "city_type": "г",
    "latitude": "52.9252146",
    "longitude": "78.5729775"
  },
  {
    "district": "Дальневосточный",
    "region": "Амурская",
    "region_type": "обл",
    "city": "Белогорск",
    "city_type": "г",
    "latitude": "50.9213415",
    "longitude": "128.4739471"
  },
  {
    "district": "Дальневосточный",
    "region": "Амурская",
    "region_type": "обл",
    "city": "Благовещенск",
    "city_type": "г",
    "latitude": "50.290659",
    "longitude": "127.527198"
  },
  {
    "district": "Дальневосточный",
    "region": "Амурская",
    "region_type": "обл",
    "city": "Завитинск",
    "city_type": "г",
    "latitude": "50.1064111",
    "longitude": "129.4391813"
  },
  {
    "district": "Дальневосточный",
    "region": "Амурская",
    "region_type": "обл",
    "city": "Зея",
    "city_type": "г",
    "latitude": "53.7340088",
    "longitude": "127.265787"
  },
  {
    "district": "Дальневосточный",
    "region": "Амурская",
    "region_type": "обл",
    "city": "Райчихинск",
    "city_type": "г",
    "latitude": "49.7941615",
    "longitude": "129.4112492"
  },
  {
    "district": "Дальневосточный",
    "region": "Амурская",
    "region_type": "обл",
    "city": "Свободный",
    "city_type": "г",
    "latitude": "51.3614103",
    "longitude": "128.1219729"
  },
  {
    "district": "Дальневосточный",
    "region": "Амурская",
    "region_type": "обл",
    "city": "Сковородино",
    "city_type": "г",
    "latitude": "53.9871095",
    "longitude": "123.9437205"
  },
  {
    "district": "Дальневосточный",
    "region": "Амурская",
    "region_type": "обл",
    "city": "Тында",
    "city_type": "г",
    "latitude": "55.1546441",
    "longitude": "124.7468904"
  },
  {
    "district": "Дальневосточный",
    "region": "Амурская",
    "region_type": "обл",
    "city": "Циолковский",
    "city_type": "г",
    "latitude": "51.762481",
    "longitude": "128.1219846"
  },
  {
    "district": "Дальневосточный",
    "region": "Амурская",
    "region_type": "обл",
    "city": "Шимановск",
    "city_type": "г",
    "latitude": "52.0051886",
    "longitude": "127.7005458"
  },
  {
    "district": "Северо-Западный",
    "region": "Архангельская",
    "region_type": "обл",
    "city": "Архангельск",
    "city_type": "г",
    "latitude": "64.5394289",
    "longitude": "40.5169606"
  },
  {
    "district": "Северо-Западный",
    "region": "Архангельская",
    "region_type": "обл",
    "city": "Вельск",
    "city_type": "г",
    "latitude": "61.066",
    "longitude": "42.1032789"
  },
  {
    "district": "Северо-Западный",
    "region": "Архангельская",
    "region_type": "обл",
    "city": "Каргополь",
    "city_type": "г",
    "latitude": "61.5009724",
    "longitude": "38.9636966"
  },
  {
    "district": "Северо-Западный",
    "region": "Архангельская",
    "region_type": "обл",
    "city": "Коряжма",
    "city_type": "г",
    "latitude": "61.2885948",
    "longitude": "47.1003015"
  },
  {
    "district": "Северо-Западный",
    "region": "Архангельская",
    "region_type": "обл",
    "city": "Котлас",
    "city_type": "г",
    "latitude": "61.2528972",
    "longitude": "46.633242"
  },
  {
    "district": "Северо-Западный",
    "region": "Архангельская",
    "region_type": "обл",
    "city": "Мезень",
    "city_type": "г",
    "latitude": "65.8398078",
    "longitude": "44.2532273"
  },
  {
    "district": "Северо-Западный",
    "region": "Архангельская",
    "region_type": "обл",
    "city": "Мирный",
    "city_type": "г",
    "latitude": "62.7645265",
    "longitude": "40.3360076"
  },
  {
    "district": "Северо-Западный",
    "region": "Архангельская",
    "region_type": "обл",
    "city": "Новодвинск",
    "city_type": "г",
    "latitude": "64.4136851",
    "longitude": "40.8208143"
  },
  {
    "district": "Северо-Западный",
    "region": "Архангельская",
    "region_type": "обл",
    "city": "Няндома",
    "city_type": "г",
    "latitude": "61.6654674",
    "longitude": "40.2062947"
  },
  {
    "district": "Северо-Западный",
    "region": "Архангельская",
    "region_type": "обл",
    "city": "Онега",
    "city_type": "г",
    "latitude": "63.9162928",
    "longitude": "38.0805031"
  },
  {
    "district": "Северо-Западный",
    "region": "Архангельская",
    "region_type": "обл",
    "city": "Северодвинск",
    "city_type": "г",
    "latitude": "64.5625385",
    "longitude": "39.8180934"
  },
  {
    "district": "Северо-Западный",
    "region": "Архангельская",
    "region_type": "обл",
    "city": "Сольвычегодск",
    "city_type": "г",
    "latitude": "61.3319616",
    "longitude": "46.920441"
  },
  {
    "district": "Северо-Западный",
    "region": "Архангельская",
    "region_type": "обл",
    "city": "Шенкурск",
    "city_type": "г",
    "latitude": "62.1057272",
    "longitude": "42.8996973"
  },
  {
    "district": "Южный",
    "region": "Астраханская",
    "region_type": "обл",
    "city": "Астрахань",
    "city_type": "г",
    "latitude": "46.3655652",
    "longitude": "48.0559236"
  },
  {
    "district": "Южный",
    "region": "Астраханская",
    "region_type": "обл",
    "city": "Ахтубинск",
    "city_type": "г",
    "latitude": "48.2752034",
    "longitude": "46.1906462"
  },
  {
    "district": "Южный",
    "region": "Астраханская",
    "region_type": "обл",
    "city": "Знаменск",
    "city_type": "г",
    "latitude": "48.5866291",
    "longitude": "45.7368019"
  },
  {
    "district": "Южный",
    "region": "Астраханская",
    "region_type": "обл",
    "city": "Камызяк",
    "city_type": "г",
    "latitude": "46.110579",
    "longitude": "48.07333"
  },
  {
    "district": "Южный",
    "region": "Астраханская",
    "region_type": "обл",
    "city": "Нариманов",
    "city_type": "г",
    "latitude": "46.6916565",
    "longitude": "47.8502476"
  },
  {
    "district": "Южный",
    "region": "Астраханская",
    "region_type": "обл",
    "city": "Харабали",
    "city_type": "г",
    "latitude": "47.408999",
    "longitude": "47.2525345"
  },
  {
    "district": "Приволжский",
    "region": "Башкортостан",
    "region_type": "респ",
    "city": "Агидель",
    "city_type": "г",
    "latitude": "55.8999056",
    "longitude": "53.9220144"
  },
  {
    "district": "Приволжский",
    "region": "Башкортостан",
    "region_type": "респ",
    "city": "Баймак",
    "city_type": "г",
    "latitude": "52.5912896",
    "longitude": "58.3110998"
  },
  {
    "district": "Приволжский",
    "region": "Башкортостан",
    "region_type": "респ",
    "city": "Белебей",
    "city_type": "г",
    "latitude": "54.1034582",
    "longitude": "54.1113129"
  },
  {
    "district": "Приволжский",
    "region": "Башкортостан",
    "region_type": "респ",
    "city": "Белорецк",
    "city_type": "г",
    "latitude": "53.9676488",
    "longitude": "58.4100419"
  },
  {
    "district": "Приволжский",
    "region": "Башкортостан",
    "region_type": "респ",
    "city": "Бирск",
    "city_type": "г",
    "latitude": "55.4155753",
    "longitude": "55.5582214"
  },
  {
    "district": "Приволжский",
    "region": "Башкортостан",
    "region_type": "респ",
    "city": "Благовещенск",
    "city_type": "г",
    "latitude": "55.0499867",
    "longitude": "55.9553186"
  },
  {
    "district": "Приволжский",
    "region": "Башкортостан",
    "region_type": "респ",
    "city": "Давлеканово",
    "city_type": "г",
    "latitude": "54.2226707",
    "longitude": "55.0312373"
  },
  {
    "district": "Приволжский",
    "region": "Башкортостан",
    "region_type": "респ",
    "city": "Дюртюли",
    "city_type": "г",
    "latitude": "55.4848318",
    "longitude": "54.8524765"
  },
  {
    "district": "Приволжский",
    "region": "Башкортостан",
    "region_type": "респ",
    "city": "Ишимбай",
    "city_type": "г",
    "latitude": "53.4545764",
    "longitude": "56.0438751"
  },
  {
    "district": "Приволжский",
    "region": "Башкортостан",
    "region_type": "респ",
    "city": "Кумертау",
    "city_type": "г",
    "latitude": "52.7564939",
    "longitude": "55.7970197"
  },
  {
    "district": "Приволжский",
    "region": "Башкортостан",
    "region_type": "респ",
    "city": "Межгорье",
    "city_type": "г",
    "latitude": "54.2397689",
    "longitude": "57.9614547"
  },
  {
    "district": "Приволжский",
    "region": "Башкортостан",
    "region_type": "респ",
    "city": "Мелеуз",
    "city_type": "г",
    "latitude": "52.9589532",
    "longitude": "55.9282838"
  },
  {
    "district": "Приволжский",
    "region": "Башкортостан",
    "region_type": "респ",
    "city": "Нефтекамск",
    "city_type": "г",
    "latitude": "56.088377",
    "longitude": "54.2483061"
  },
  {
    "district": "Приволжский",
    "region": "Башкортостан",
    "region_type": "респ",
    "city": "Октябрьский",
    "city_type": "г",
    "latitude": "54.4815311",
    "longitude": "53.4655972"
  },
  {
    "district": "Приволжский",
    "region": "Башкортостан",
    "region_type": "респ",
    "city": "Салават",
    "city_type": "г",
    "latitude": "53.3616974",
    "longitude": "55.9245224"
  },
  {
    "district": "Приволжский",
    "region": "Башкортостан",
    "region_type": "респ",
    "city": "Сибай",
    "city_type": "г",
    "latitude": "52.7204651",
    "longitude": "58.6663783"
  },
  {
    "district": "Приволжский",
    "region": "Башкортостан",
    "region_type": "респ",
    "city": "Стерлитамак",
    "city_type": "г",
    "latitude": "53.6300864",
    "longitude": "55.9317089"
  },
  {
    "district": "Приволжский",
    "region": "Башкортостан",
    "region_type": "респ",
    "city": "Туймазы",
    "city_type": "г",
    "latitude": "54.5999224",
    "longitude": "53.6950623"
  },
  {
    "district": "Приволжский",
    "region": "Башкортостан",
    "region_type": "респ",
    "city": "Уфа",
    "city_type": "г",
    "latitude": "54.734944",
    "longitude": "55.9578468"
  },
  {
    "district": "Приволжский",
    "region": "Башкортостан",
    "region_type": "респ",
    "city": "Учалы",
    "city_type": "г",
    "latitude": "54.3067375",
    "longitude": "59.4125461"
  },
  {
    "district": "Приволжский",
    "region": "Башкортостан",
    "region_type": "респ",
    "city": "Янаул",
    "city_type": "г",
    "latitude": "56.2650146",
    "longitude": "54.929907"
  },
  {
    "district": "Центральный",
    "region": "Белгородская",
    "region_type": "обл",
    "city": "Алексеевка",
    "city_type": "г",
    "latitude": "50.6299647",
    "longitude": "38.6880342"
  },
  {
    "district": "Центральный",
    "region": "Белгородская",
    "region_type": "обл",
    "city": "Белгород",
    "city_type": "г",
    "latitude": "50.5976472",
    "longitude": "36.5856652"
  },
  {
    "district": "Центральный",
    "region": "Белгородская",
    "region_type": "обл",
    "city": "Бирюч",
    "city_type": "г",
    "latitude": "50.6484585",
    "longitude": "38.4005083"
  },
  {
    "district": "Центральный",
    "region": "Белгородская",
    "region_type": "обл",
    "city": "Валуйки",
    "city_type": "г",
    "latitude": "50.2111207",
    "longitude": "38.0998772"
  },
  {
    "district": "Центральный",
    "region": "Белгородская",
    "region_type": "обл",
    "city": "Грайворон",
    "city_type": "г",
    "latitude": "50.4862958",
    "longitude": "35.6663877"
  },
  {
    "district": "Центральный",
    "region": "Белгородская",
    "region_type": "обл",
    "city": "Губкин",
    "city_type": "г",
    "latitude": "51.2837123",
    "longitude": "37.5347759"
  },
  {
    "district": "Центральный",
    "region": "Белгородская",
    "region_type": "обл",
    "city": "Короча",
    "city_type": "г",
    "latitude": "50.8129041",
    "longitude": "37.1896436"
  },
  {
    "district": "Центральный",
    "region": "Белгородская",
    "region_type": "обл",
    "city": "Новый Оскол",
    "city_type": "г",
    "latitude": "50.7633747",
    "longitude": "37.8775484"
  },
  {
    "district": "Центральный",
    "region": "Белгородская",
    "region_type": "обл",
    "city": "Старый Оскол",
    "city_type": "г",
    "latitude": "51.2967101",
    "longitude": "37.8350182"
  },
  {
    "district": "Центральный",
    "region": "Белгородская",
    "region_type": "обл",
    "city": "Строитель",
    "city_type": "г",
    "latitude": "50.7845099",
    "longitude": "36.4887648"
  },
  {
    "district": "Центральный",
    "region": "Белгородская",
    "region_type": "обл",
    "city": "Шебекино",
    "city_type": "г",
    "latitude": "50.4004883",
    "longitude": "36.8877889"
  },
  {
    "district": "Центральный",
    "region": "Брянская",
    "region_type": "обл",
    "city": "Брянск",
    "city_type": "г",
    "latitude": "53.2419535",
    "longitude": "34.3652146"
  },
  {
    "district": "Центральный",
    "region": "Брянская",
    "region_type": "обл",
    "city": "Дятьково",
    "city_type": "г",
    "latitude": "53.5958178",
    "longitude": "34.3551812"
  },
  {
    "district": "Центральный",
    "region": "Брянская",
    "region_type": "обл",
    "city": "Жуковка",
    "city_type": "г",
    "latitude": "53.5340397",
    "longitude": "33.7302579"
  },
  {
    "district": "Центральный",
    "region": "Брянская",
    "region_type": "обл",
    "city": "Злынка",
    "city_type": "г",
    "latitude": "52.4267015",
    "longitude": "31.7360399"
  },
  {
    "district": "Центральный",
    "region": "Брянская",
    "region_type": "обл",
    "city": "Карачев",
    "city_type": "г",
    "latitude": "53.1296524",
    "longitude": "34.9888727"
  },
  {
    "district": "Центральный",
    "region": "Брянская",
    "region_type": "обл",
    "city": "Клинцы",
    "city_type": "г",
    "latitude": "52.7529119",
    "longitude": "32.233911"
  },
  {
    "district": "Центральный",
    "region": "Брянская",
    "region_type": "обл",
    "city": "Мглин",
    "city_type": "г",
    "latitude": "53.0599771",
    "longitude": "32.8468129"
  },
  {
    "district": "Центральный",
    "region": "Брянская",
    "region_type": "обл",
    "city": "Новозыбков",
    "city_type": "г",
    "latitude": "52.537173",
    "longitude": "31.9357991"
  },
  {
    "district": "Центральный",
    "region": "Брянская",
    "region_type": "обл",
    "city": "Почеп",
    "city_type": "г",
    "latitude": "52.9154851",
    "longitude": "33.4744058"
  },
  {
    "district": "Центральный",
    "region": "Брянская",
    "region_type": "обл",
    "city": "Севск",
    "city_type": "г",
    "latitude": "52.1483358",
    "longitude": "34.4918415"
  },
  {
    "district": "Центральный",
    "region": "Брянская",
    "region_type": "обл",
    "city": "Сельцо",
    "city_type": "г",
    "latitude": "53.3739884",
    "longitude": "34.1059172"
  },
  {
    "district": "Центральный",
    "region": "Брянская",
    "region_type": "обл",
    "city": "Стародуб",
    "city_type": "г",
    "latitude": "52.5852257",
    "longitude": "32.760403"
  },
  {
    "district": "Центральный",
    "region": "Брянская",
    "region_type": "обл",
    "city": "Сураж",
    "city_type": "г",
    "latitude": "53.0170888",
    "longitude": "32.3938878"
  },
  {
    "district": "Центральный",
    "region": "Брянская",
    "region_type": "обл",
    "city": "Трубчевск",
    "city_type": "г",
    "latitude": "52.5791734",
    "longitude": "33.7660547"
  },
  {
    "district": "Центральный",
    "region": "Брянская",
    "region_type": "обл",
    "city": "Унеча",
    "city_type": "г",
    "latitude": "52.8461199",
    "longitude": "32.6757629"
  },
  {
    "district": "Центральный",
    "region": "Брянская",
    "region_type": "обл",
    "city": "Фокино",
    "city_type": "г",
    "latitude": "53.4554145",
    "longitude": "34.4159238"
  },
  {
    "district": "Дальневосточный",
    "region": "Бурятия",
    "region_type": "респ",
    "city": "Бабушкин",
    "city_type": "г",
    "latitude": "51.7112755",
    "longitude": "105.8673219"
  },
  {
    "district": "Дальневосточный",
    "region": "Бурятия",
    "region_type": "респ",
    "city": "Гусиноозерск",
    "city_type": "г",
    "latitude": "51.2865048",
    "longitude": "106.5230319"
  },
  {
    "district": "Дальневосточный",
    "region": "Бурятия",
    "region_type": "респ",
    "city": "Закаменск",
    "city_type": "г",
    "latitude": "50.372713",
    "longitude": "103.286699"
  },
  {
    "district": "Дальневосточный",
    "region": "Бурятия",
    "region_type": "респ",
    "city": "Кяхта",
    "city_type": "г",
    "latitude": "50.346543",
    "longitude": "106.4533516"
  },
  {
    "district": "Дальневосточный",
    "region": "Бурятия",
    "region_type": "респ",
    "city": "Северобайкальск",
    "city_type": "г",
    "latitude": "55.635614",
    "longitude": "109.3361505"
  },
  {
    "district": "Дальневосточный",
    "region": "Бурятия",
    "region_type": "респ",
    "city": "Улан-Удэ",
    "city_type": "г",
    "latitude": "51.8335853",
    "longitude": "107.5842223"
  },
  {
    "district": "Центральный",
    "region": "Владимирская",
    "region_type": "обл",
    "city": "Александров",
    "city_type": "г",
    "latitude": "56.391819",
    "longitude": "38.7111123"
  },
  {
    "district": "Центральный",
    "region": "Владимирская",
    "region_type": "обл",
    "city": "Владимир",
    "city_type": "г",
    "latitude": "56.1280804",
    "longitude": "40.4084376"
  },
  {
    "district": "Центральный",
    "region": "Владимирская",
    "region_type": "обл",
    "city": "Вязники",
    "city_type": "г",
    "latitude": "56.29773",
    "longitude": "42.2687398"
  },
  {
    "district": "Центральный",
    "region": "Владимирская",
    "region_type": "обл",
    "city": "Гороховец",
    "city_type": "г",
    "latitude": "56.2021036",
    "longitude": "42.6926111"
  },
  {
    "district": "Центральный",
    "region": "Владимирская",
    "region_type": "обл",
    "city": "Гусь-Хрустальный",
    "city_type": "г",
    "latitude": "55.6198751",
    "longitude": "40.6579929"
  },
  {
    "district": "Центральный",
    "region": "Владимирская",
    "region_type": "обл",
    "city": "Камешково",
    "city_type": "г",
    "latitude": "56.3490152",
    "longitude": "40.9955183"
  },
  {
    "district": "Центральный",
    "region": "Владимирская",
    "region_type": "обл",
    "city": "Карабаново",
    "city_type": "г",
    "latitude": "56.3131822",
    "longitude": "38.7034257"
  },
  {
    "district": "Центральный",
    "region": "Владимирская",
    "region_type": "обл",
    "city": "Киржач",
    "city_type": "г",
    "latitude": "56.1486863",
    "longitude": "38.8635701"
  },
  {
    "district": "Центральный",
    "region": "Владимирская",
    "region_type": "обл",
    "city": "Ковров",
    "city_type": "г",
    "latitude": "56.3554349",
    "longitude": "41.3170576"
  },
  {
    "district": "Центральный",
    "region": "Владимирская",
    "region_type": "обл",
    "city": "Кольчугино",
    "city_type": "г",
    "latitude": "56.3327254",
    "longitude": "39.391336"
  },
  {
    "district": "Центральный",
    "region": "Владимирская",
    "region_type": "обл",
    "city": "Костерево",
    "city_type": "г",
    "latitude": "55.9337222",
    "longitude": "39.6247398"
  },
  {
    "district": "Центральный",
    "region": "Владимирская",
    "region_type": "обл",
    "city": "Курлово",
    "city_type": "г",
    "latitude": "55.452698",
    "longitude": "40.6124108"
  },
  {
    "district": "Центральный",
    "region": "Владимирская",
    "region_type": "обл",
    "city": "Лакинск",
    "city_type": "г",
    "latitude": "56.0180587",
    "longitude": "39.956551"
  },
  {
    "district": "Центральный",
    "region": "Владимирская",
    "region_type": "обл",
    "city": "Меленки",
    "city_type": "г",
    "latitude": "55.3387515",
    "longitude": "41.6340046"
  },
  {
    "district": "Центральный",
    "region": "Владимирская",
    "region_type": "обл",
    "city": "Муром",
    "city_type": "г",
    "latitude": "55.5630311",
    "longitude": "42.0231362"
  },
  {
    "district": "Центральный",
    "region": "Владимирская",
    "region_type": "обл",
    "city": "Петушки",
    "city_type": "г",
    "latitude": "55.9298134",
    "longitude": "39.4508075"
  },
  {
    "district": "Центральный",
    "region": "Владимирская",
    "region_type": "обл",
    "city": "Покров",
    "city_type": "г",
    "latitude": "55.9166398",
    "longitude": "39.1734526"
  },
  {
    "district": "Центральный",
    "region": "Владимирская",
    "region_type": "обл",
    "city": "Радужный",
    "city_type": "г",
    "latitude": "55.9960277",
    "longitude": "40.3321855"
  },
  {
    "district": "Центральный",
    "region": "Владимирская",
    "region_type": "обл",
    "city": "Собинка",
    "city_type": "г",
    "latitude": "55.9939169",
    "longitude": "40.0179653"
  },
  {
    "district": "Центральный",
    "region": "Владимирская",
    "region_type": "обл",
    "city": "Струнино",
    "city_type": "г",
    "latitude": "56.3749967",
    "longitude": "38.5839667"
  },
  {
    "district": "Центральный",
    "region": "Владимирская",
    "region_type": "обл",
    "city": "Судогда",
    "city_type": "г",
    "latitude": "55.9498056",
    "longitude": "40.8562939"
  },
  {
    "district": "Центральный",
    "region": "Владимирская",
    "region_type": "обл",
    "city": "Суздаль",
    "city_type": "г",
    "latitude": "56.4274441",
    "longitude": "40.4525692"
  },
  {
    "district": "Центральный",
    "region": "Владимирская",
    "region_type": "обл",
    "city": "Юрьев-Польский",
    "city_type": "г",
    "latitude": "56.4937757",
    "longitude": "39.6680539"
  },
  {
    "district": "Южный",
    "region": "Волгоградская",
    "region_type": "обл",
    "city": "Волгоград",
    "city_type": "г",
    "latitude": "48.7070042",
    "longitude": "44.5170339"
  },
  {
    "district": "Южный",
    "region": "Волгоградская",
    "region_type": "обл",
    "city": "Волжский",
    "city_type": "г",
    "latitude": "48.7978209",
    "longitude": "44.7462538"
  },
  {
    "district": "Южный",
    "region": "Волгоградская",
    "region_type": "обл",
    "city": "Дубовка",
    "city_type": "г",
    "latitude": "49.0554742",
    "longitude": "44.8270085"
  },
  {
    "district": "Южный",
    "region": "Волгоградская",
    "region_type": "обл",
    "city": "Жирновск",
    "city_type": "г",
    "latitude": "50.9768814",
    "longitude": "44.7858202"
  },
  {
    "district": "Южный",
    "region": "Волгоградская",
    "region_type": "обл",
    "city": "Калач-на-Дону",
    "city_type": "г",
    "latitude": "48.6889024",
    "longitude": "43.5306303"
  },
  {
    "district": "Южный",
    "region": "Волгоградская",
    "region_type": "обл",
    "city": "Камышин",
    "city_type": "г",
    "latitude": "50.0651529",
    "longitude": "45.3844202"
  },
  {
    "district": "Южный",
    "region": "Волгоградская",
    "region_type": "обл",
    "city": "Котельниково",
    "city_type": "г",
    "latitude": "47.6310259",
    "longitude": "43.1330872"
  },
  {
    "district": "Южный",
    "region": "Волгоградская",
    "region_type": "обл",
    "city": "Котово",
    "city_type": "г",
    "latitude": "50.3205766",
    "longitude": "44.8030699"
  },
  {
    "district": "Южный",
    "region": "Волгоградская",
    "region_type": "обл",
    "city": "Краснослободск",
    "city_type": "г",
    "latitude": "48.7068721",
    "longitude": "44.5630857"
  },
  {
    "district": "Южный",
    "region": "Волгоградская",
    "region_type": "обл",
    "city": "Ленинск",
    "city_type": "г",
    "latitude": "48.6936061",
    "longitude": "45.1992692"
  },
  {
    "district": "Южный",
    "region": "Волгоградская",
    "region_type": "обл",
    "city": "Михайловка",
    "city_type": "г",
    "latitude": "50.0708719",
    "longitude": "43.2401512"
  },
  {
    "district": "Южный",
    "region": "Волгоградская",
    "region_type": "обл",
    "city": "Николаевск",
    "city_type": "г",
    "latitude": "50.0165306",
    "longitude": "45.4731658"
  },
  {
    "district": "Южный",
    "region": "Волгоградская",
    "region_type": "обл",
    "city": "Новоаннинский",
    "city_type": "г",
    "latitude": "50.5296067",
    "longitude": "42.6666439"
  },
  {
    "district": "Южный",
    "region": "Волгоградская",
    "region_type": "обл",
    "city": "Палласовка",
    "city_type": "г",
    "latitude": "50.0500944",
    "longitude": "46.8804277"
  },
  {
    "district": "Южный",
    "region": "Волгоградская",
    "region_type": "обл",
    "city": "Петров Вал",
    "city_type": "г",
    "latitude": "50.1380557",
    "longitude": "45.20914"
  },
  {
    "district": "Южный",
    "region": "Волгоградская",
    "region_type": "обл",
    "city": "Серафимович",
    "city_type": "г",
    "latitude": "49.5663183",
    "longitude": "42.7360402"
  },
  {
    "district": "Южный",
    "region": "Волгоградская",
    "region_type": "обл",
    "city": "Суровикино",
    "city_type": "г",
    "latitude": "48.618917",
    "longitude": "42.8541163"
  },
  {
    "district": "Южный",
    "region": "Волгоградская",
    "region_type": "обл",
    "city": "Урюпинск",
    "city_type": "г",
    "latitude": "50.7903789",
    "longitude": "42.0288513"
  },
  {
    "district": "Южный",
    "region": "Волгоградская",
    "region_type": "обл",
    "city": "Фролово",
    "city_type": "г",
    "latitude": "49.7649148",
    "longitude": "43.6648641"
  },
  {
    "district": "Северо-Западный",
    "region": "Вологодская",
    "region_type": "обл",
    "city": "Бабаево",
    "city_type": "г",
    "latitude": "59.3892583",
    "longitude": "35.9377058"
  },
  {
    "district": "Северо-Западный",
    "region": "Вологодская",
    "region_type": "обл",
    "city": "Белозерск",
    "city_type": "г",
    "latitude": "60.0308381",
    "longitude": "37.7890586"
  },
  {
    "district": "Северо-Западный",
    "region": "Вологодская",
    "region_type": "обл",
    "city": "Великий Устюг",
    "city_type": "г",
    "latitude": "60.7603913",
    "longitude": "46.3054414"
  },
  {
    "district": "Северо-Западный",
    "region": "Вологодская",
    "region_type": "обл",
    "city": "Вологда",
    "city_type": "г",
    "latitude": "59.2483905",
    "longitude": "39.8355662"
  },
  {
    "district": "Северо-Западный",
    "region": "Вологодская",
    "region_type": "обл",
    "city": "Вытегра",
    "city_type": "г",
    "latitude": "61.0063465",
    "longitude": "36.4495137"
  },
  {
    "district": "Северо-Западный",
    "region": "Вологодская",
    "region_type": "обл",
    "city": "Грязовец",
    "city_type": "г",
    "latitude": "58.8757553",
    "longitude": "40.2485362"
  },
  {
    "district": "Северо-Западный",
    "region": "Вологодская",
    "region_type": "обл",
    "city": "Кадников",
    "city_type": "г",
    "latitude": "59.5037764",
    "longitude": "40.3441148"
  },
  {
    "district": "Северо-Западный",
    "region": "Вологодская",
    "region_type": "обл",
    "city": "Кириллов",
    "city_type": "г",
    "latitude": "59.8591523",
    "longitude": "38.3748782"
  },
  {
    "district": "Северо-Западный",
    "region": "Вологодская",
    "region_type": "обл",
    "city": "Красавино",
    "city_type": "г",
    "latitude": "60.9612823",
    "longitude": "46.4814116"
  },
  {
    "district": "Северо-Западный",
    "region": "Вологодская",
    "region_type": "обл",
    "city": "Никольск",
    "city_type": "г",
    "latitude": "59.5351837",
    "longitude": "45.4576137"
  },
  {
    "district": "Северо-Западный",
    "region": "Вологодская",
    "region_type": "обл",
    "city": "Сокол",
    "city_type": "г",
    "latitude": "59.4758605",
    "longitude": "40.1114187"
  },
  {
    "district": "Северо-Западный",
    "region": "Вологодская",
    "region_type": "обл",
    "city": "Тотьма",
    "city_type": "г",
    "latitude": "59.9734998",
    "longitude": "42.7589506"
  },
  {
    "district": "Северо-Западный",
    "region": "Вологодская",
    "region_type": "обл",
    "city": "Устюжна",
    "city_type": "г",
    "latitude": "58.8383117",
    "longitude": "36.4425478"
  },
  {
    "district": "Северо-Западный",
    "region": "Вологодская",
    "region_type": "обл",
    "city": "Харовск",
    "city_type": "г",
    "latitude": "59.9479423",
    "longitude": "40.2000298"
  },
  {
    "district": "Северо-Западный",
    "region": "Вологодская",
    "region_type": "обл",
    "city": "Череповец",
    "city_type": "г",
    "latitude": "59.1269212",
    "longitude": "37.9090497"
  },
  {
    "district": "Центральный",
    "region": "Воронежская",
    "region_type": "обл",
    "city": "Бобров",
    "city_type": "г",
    "latitude": "51.0901649",
    "longitude": "40.0318256"
  },
  {
    "district": "Центральный",
    "region": "Воронежская",
    "region_type": "обл",
    "city": "Богучар",
    "city_type": "г",
    "latitude": "49.9352454",
    "longitude": "40.5590801"
  },
  {
    "district": "Центральный",
    "region": "Воронежская",
    "region_type": "обл",
    "city": "Борисоглебск",
    "city_type": "г",
    "latitude": "51.3655754",
    "longitude": "42.1008334"
  },
  {
    "district": "Центральный",
    "region": "Воронежская",
    "region_type": "обл",
    "city": "Бутурлиновка",
    "city_type": "г",
    "latitude": "50.8311818",
    "longitude": "40.5976923"
  },
  {
    "district": "Центральный",
    "region": "Воронежская",
    "region_type": "обл",
    "city": "Воронеж",
    "city_type": "г",
    "latitude": "51.6593332",
    "longitude": "39.1969229"
  },
  {
    "district": "Центральный",
    "region": "Воронежская",
    "region_type": "обл",
    "city": "Калач",
    "city_type": "г",
    "latitude": "50.4242134",
    "longitude": "41.0162014"
  },
  {
    "district": "Центральный",
    "region": "Воронежская",
    "region_type": "обл",
    "city": "Лиски",
    "city_type": "г",
    "latitude": "50.9945626",
    "longitude": "39.5184909"
  },
  {
    "district": "Центральный",
    "region": "Воронежская",
    "region_type": "обл",
    "city": "Нововоронеж",
    "city_type": "г",
    "latitude": "51.3091524",
    "longitude": "39.2162843"
  },
  {
    "district": "Центральный",
    "region": "Воронежская",
    "region_type": "обл",
    "city": "Новохоперск",
    "city_type": "г",
    "latitude": "51.0952211",
    "longitude": "41.6173404"
  },
  {
    "district": "Центральный",
    "region": "Воронежская",
    "region_type": "обл",
    "city": "Острогожск",
    "city_type": "г",
    "latitude": "50.8677905",
    "longitude": "39.0407746"
  },
  {
    "district": "Центральный",
    "region": "Воронежская",
    "region_type": "обл",
    "city": "Павловск",
    "city_type": "г",
    "latitude": "50.453455",
    "longitude": "40.136874"
  },
  {
    "district": "Центральный",
    "region": "Воронежская",
    "region_type": "обл",
    "city": "Поворино",
    "city_type": "г",
    "latitude": "51.1954419",
    "longitude": "42.2472726"
  },
  {
    "district": "Центральный",
    "region": "Воронежская",
    "region_type": "обл",
    "city": "Россошь",
    "city_type": "г",
    "latitude": "50.1701949",
    "longitude": "39.6226965"
  },
  {
    "district": "Центральный",
    "region": "Воронежская",
    "region_type": "обл",
    "city": "Семилуки",
    "city_type": "г",
    "latitude": "51.6951644",
    "longitude": "39.0190454"
  },
  {
    "district": "Центральный",
    "region": "Воронежская",
    "region_type": "обл",
    "city": "Эртиль",
    "city_type": "г",
    "latitude": "51.830932",
    "longitude": "40.8074182"
  },
  {
    "district": "Северо-Кавказский",
    "region": "Дагестан",
    "region_type": "респ",
    "city": "Буйнакск",
    "city_type": "г",
    "latitude": "42.8214424",
    "longitude": "47.1165263"
  },
  {
    "district": "Северо-Кавказский",
    "region": "Дагестан",
    "region_type": "респ",
    "city": "Дагестанские Огни",
    "city_type": "г",
    "latitude": "42.1152296",
    "longitude": "48.1939354"
  },
  {
    "district": "Северо-Кавказский",
    "region": "Дагестан",
    "region_type": "респ",
    "city": "Дербент",
    "city_type": "г",
    "latitude": "42.058966",
    "longitude": "48.2907452"
  },
  {
    "district": "Северо-Кавказский",
    "region": "Дагестан",
    "region_type": "респ",
    "city": "Избербаш",
    "city_type": "г",
    "latitude": "42.5650962",
    "longitude": "47.8710051"
  },
  {
    "district": "Северо-Кавказский",
    "region": "Дагестан",
    "region_type": "респ",
    "city": "Каспийск",
    "city_type": "г",
    "latitude": "42.8916007",
    "longitude": "47.6367066"
  },
  {
    "district": "Северо-Кавказский",
    "region": "Дагестан",
    "region_type": "респ",
    "city": "Кизилюрт",
    "city_type": "г",
    "latitude": "43.203825",
    "longitude": "46.8729636"
  },
  {
    "district": "Северо-Кавказский",
    "region": "Дагестан",
    "region_type": "респ",
    "city": "Кизляр",
    "city_type": "г",
    "latitude": "43.8484083",
    "longitude": "46.7233699"
  },
  {
    "district": "Северо-Кавказский",
    "region": "Дагестан",
    "region_type": "респ",
    "city": "Махачкала",
    "city_type": "г",
    "latitude": "42.9849159",
    "longitude": "47.5047181"
  },
  {
    "district": "Северо-Кавказский",
    "region": "Дагестан",
    "region_type": "респ",
    "city": "Хасавюрт",
    "city_type": "г",
    "latitude": "43.2504665",
    "longitude": "46.5851292"
  },
  {
    "district": "Северо-Кавказский",
    "region": "Дагестан",
    "region_type": "респ",
    "city": "Южно-Сухокумск",
    "city_type": "г",
    "latitude": "44.6602467",
    "longitude": "45.6499523"
  },
  {
    "district": "Дальневосточный",
    "region": "Еврейская",
    "region_type": "аобл",
    "city": "Биробиджан",
    "city_type": "г",
    "latitude": "48.7946446",
    "longitude": "132.9217207"
  },
  {
    "district": "Дальневосточный",
    "region": "Еврейская",
    "region_type": "аобл",
    "city": "Облучье",
    "city_type": "г",
    "latitude": "49.0189345",
    "longitude": "131.0540102"
  },
  {
    "district": "Дальневосточный",
    "region": "Забайкальский",
    "region_type": "край",
    "city": "Балей",
    "city_type": "г",
    "latitude": "51.5823759",
    "longitude": "116.6379549"
  },
  {
    "district": "Дальневосточный",
    "region": "Забайкальский",
    "region_type": "край",
    "city": "Борзя",
    "city_type": "г",
    "latitude": "50.3876058",
    "longitude": "116.5234779"
  },
  {
    "district": "Дальневосточный",
    "region": "Забайкальский",
    "region_type": "край",
    "city": "Краснокаменск",
    "city_type": "г",
    "latitude": "50.0929703",
    "longitude": "118.0323936"
  },
  {
    "district": "Дальневосточный",
    "region": "Забайкальский",
    "region_type": "край",
    "city": "Могоча",
    "city_type": "г",
    "latitude": "53.7361398",
    "longitude": "119.7660867"
  },
  {
    "district": "Дальневосточный",
    "region": "Забайкальский",
    "region_type": "край",
    "city": "Нерчинск",
    "city_type": "г",
    "latitude": "51.9594977",
    "longitude": "116.5852383"
  },
  {
    "district": "Дальневосточный",
    "region": "Забайкальский",
    "region_type": "край",
    "city": "Петровск-Забайкальский",
    "city_type": "г",
    "latitude": "51.2748592",
    "longitude": "108.846681"
  },
  {
    "district": "Дальневосточный",
    "region": "Забайкальский",
    "region_type": "край",
    "city": "Сретенск",
    "city_type": "г",
    "latitude": "52.2461454",
    "longitude": "117.7117842"
  },
  {
    "district": "Дальневосточный",
    "region": "Забайкальский",
    "region_type": "край",
    "city": "Хилок",
    "city_type": "г",
    "latitude": "51.3634856",
    "longitude": "110.4590898"
  },
  {
    "district": "Дальневосточный",
    "region": "Забайкальский",
    "region_type": "край",
    "city": "Чита",
    "city_type": "г",
    "latitude": "52.0340142",
    "longitude": "113.4994"
  },
  {
    "district": "Дальневосточный",
    "region": "Забайкальский",
    "region_type": "край",
    "city": "Шилка",
    "city_type": "г",
    "latitude": "51.8497035",
    "longitude": "116.0334461"
  },
  {
    "district": "Центральный",
    "region": "Ивановская",
    "region_type": "обл",
    "city": "Вичуга",
    "city_type": "г",
    "latitude": "57.2044698",
    "longitude": "41.9132201"
  },
  {
    "district": "Центральный",
    "region": "Ивановская",
    "region_type": "обл",
    "city": "Гаврилов Посад",
    "city_type": "г",
    "latitude": "56.5586946",
    "longitude": "40.1228906"
  },
  {
    "district": "Центральный",
    "region": "Ивановская",
    "region_type": "обл",
    "city": "Заволжск",
    "city_type": "г",
    "latitude": "57.4918141",
    "longitude": "42.1375625"
  },
  {
    "district": "Центральный",
    "region": "Ивановская",
    "region_type": "обл",
    "city": "Иваново",
    "city_type": "г",
    "latitude": "56.9993792",
    "longitude": "40.9728272"
  },
  {
    "district": "Центральный",
    "region": "Ивановская",
    "region_type": "обл",
    "city": "Кинешма",
    "city_type": "г",
    "latitude": "57.4425463",
    "longitude": "42.168914"
  },
  {
    "district": "Центральный",
    "region": "Ивановская",
    "region_type": "обл",
    "city": "Комсомольск",
    "city_type": "г",
    "latitude": "57.0273052",
    "longitude": "40.3776851"
  },
  {
    "district": "Центральный",
    "region": "Ивановская",
    "region_type": "обл",
    "city": "Кохма",
    "city_type": "г",
    "latitude": "56.9324606",
    "longitude": "41.0931657"
  },
  {
    "district": "Центральный",
    "region": "Ивановская",
    "region_type": "обл",
    "city": "Наволоки",
    "city_type": "г",
    "latitude": "57.4679066",
    "longitude": "41.9608002"
  },
  {
    "district": "Центральный",
    "region": "Ивановская",
    "region_type": "обл",
    "city": "Плес",
    "city_type": "г",
    "latitude": "57.4606031",
    "longitude": "41.5122672"
  },
  {
    "district": "Центральный",
    "region": "Ивановская",
    "region_type": "обл",
    "city": "Приволжск",
    "city_type": "г",
    "latitude": "57.3805743",
    "longitude": "41.2808565"
  },
  {
    "district": "Центральный",
    "region": "Ивановская",
    "region_type": "обл",
    "city": "Пучеж",
    "city_type": "г",
    "latitude": "56.9820688",
    "longitude": "43.1683321"
  },
  {
    "district": "Центральный",
    "region": "Ивановская",
    "region_type": "обл",
    "city": "Родники",
    "city_type": "г",
    "latitude": "57.1025975",
    "longitude": "41.7298834"
  },
  {
    "district": "Центральный",
    "region": "Ивановская",
    "region_type": "обл",
    "city": "Тейково",
    "city_type": "г",
    "latitude": "56.8542719",
    "longitude": "40.5353874"
  },
  {
    "district": "Центральный",
    "region": "Ивановская",
    "region_type": "обл",
    "city": "Фурманов",
    "city_type": "г",
    "latitude": "57.2539276",
    "longitude": "41.1054432"
  },
  {
    "district": "Центральный",
    "region": "Ивановская",
    "region_type": "обл",
    "city": "Шуя",
    "city_type": "г",
    "latitude": "56.8560234",
    "longitude": "41.3800939"
  },
  {
    "district": "Центральный",
    "region": "Ивановская",
    "region_type": "обл",
    "city": "Южа",
    "city_type": "г",
    "latitude": "56.5926877",
    "longitude": "42.0458099"
  },
  {
    "district": "Центральный",
    "region": "Ивановская",
    "region_type": "обл",
    "city": "Юрьевец",
    "city_type": "г",
    "latitude": "57.3177781",
    "longitude": "43.1110401"
  },
  {
    "district": "Северо-Кавказский",
    "region": "Ингушетия",
    "region_type": "респ",
    "city": "Карабулак",
    "city_type": "г",
    "latitude": "43.3055248",
    "longitude": "44.9094582"
  },
  {
    "district": "Северо-Кавказский",
    "region": "Ингушетия",
    "region_type": "респ",
    "city": "Магас",
    "city_type": "г",
    "latitude": "43.1688611",
    "longitude": "44.8131207"
  },
  {
    "district": "Северо-Кавказский",
    "region": "Ингушетия",
    "region_type": "респ",
    "city": "Малгобек",
    "city_type": "г",
    "latitude": "43.5096646",
    "longitude": "44.5901963"
  },
  {
    "district": "Северо-Кавказский",
    "region": "Ингушетия",
    "region_type": "респ",
    "city": "Назрань",
    "city_type": "г",
    "latitude": "43.2257841",
    "longitude": "44.7645779"
  },
  {
    "district": "Северо-Кавказский",
    "region": "Ингушетия",
    "region_type": "респ",
    "city": "Сунжа",
    "city_type": "г",
    "latitude": "43.3204196",
    "longitude": "45.0476331"
  },
  {
    "district": "Сибирский",
    "region": "Иркутская",
    "region_type": "обл",
    "city": "Алзамай",
    "city_type": "г",
    "latitude": "55.5551233",
    "longitude": "98.6643699"
  },
  {
    "district": "Сибирский",
    "region": "Иркутская",
    "region_type": "обл",
    "city": "Ангарск",
    "city_type": "г",
    "latitude": "52.544879",
    "longitude": "103.888543"
  },
  {
    "district": "Сибирский",
    "region": "Иркутская",
    "region_type": "обл",
    "city": "Байкальск",
    "city_type": "г",
    "latitude": "51.5230393",
    "longitude": "104.1487532"
  },
  {
    "district": "Сибирский",
    "region": "Иркутская",
    "region_type": "обл",
    "city": "Бирюсинск",
    "city_type": "г",
    "latitude": "55.9609167",
    "longitude": "97.8205348"
  },
  {
    "district": "Сибирский",
    "region": "Иркутская",
    "region_type": "обл",
    "city": "Бодайбо",
    "city_type": "г",
    "latitude": "57.8468636",
    "longitude": "114.1866287"
  },
  {
    "district": "Сибирский",
    "region": "Иркутская",
    "region_type": "обл",
    "city": "Братск",
    "city_type": "г",
    "latitude": "56.1513108",
    "longitude": "101.6340035"
  },
  {
    "district": "Сибирский",
    "region": "Иркутская",
    "region_type": "обл",
    "city": "Вихоревка",
    "city_type": "г",
    "latitude": "56.1208145",
    "longitude": "101.1702926"
  },
  {
    "district": "Сибирский",
    "region": "Иркутская",
    "region_type": "обл",
    "city": "Железногорск-Илимский",
    "city_type": "г",
    "latitude": "56.5847888",
    "longitude": "104.114275"
  },
  {
    "district": "Сибирский",
    "region": "Иркутская",
    "region_type": "обл",
    "city": "Зима",
    "city_type": "г",
    "latitude": "53.920693",
    "longitude": "102.0491772"
  },
  {
    "district": "Сибирский",
    "region": "Иркутская",
    "region_type": "обл",
    "city": "Иркутск",
    "city_type": "г",
    "latitude": "52.2864036",
    "longitude": "104.2807466"
  },
  {
    "district": "Сибирский",
    "region": "Иркутская",
    "region_type": "обл",
    "city": "Киренск",
    "city_type": "г",
    "latitude": "57.7756595",
    "longitude": "108.1109412"
  },
  {
    "district": "Сибирский",
    "region": "Иркутская",
    "region_type": "обл",
    "city": "Нижнеудинск",
    "city_type": "г",
    "latitude": "54.8968931",
    "longitude": "99.0314056"
  },
  {
    "district": "Сибирский",
    "region": "Иркутская",
    "region_type": "обл",
    "city": "Саянск",
    "city_type": "г",
    "latitude": "54.1107238",
    "longitude": "102.18015"
  },
  {
    "district": "Сибирский",
    "region": "Иркутская",
    "region_type": "обл",
    "city": "Свирск",
    "city_type": "г",
    "latitude": "53.0842668",
    "longitude": "103.3364093"
  },
  {
    "district": "Сибирский",
    "region": "Иркутская",
    "region_type": "обл",
    "city": "Слюдянка",
    "city_type": "г",
    "latitude": "51.6563983",
    "longitude": "103.7187545"
  },
  {
    "district": "Сибирский",
    "region": "Иркутская",
    "region_type": "обл",
    "city": "Тайшет",
    "city_type": "г",
    "latitude": "55.9405334",
    "longitude": "98.0030145"
  },
  {
    "district": "Сибирский",
    "region": "Иркутская",
    "region_type": "обл",
    "city": "Тулун",
    "city_type": "г",
    "latitude": "54.557162",
    "longitude": "100.5780603"
  },
  {
    "district": "Сибирский",
    "region": "Иркутская",
    "region_type": "обл",
    "city": "Усолье-Сибирское",
    "city_type": "г",
    "latitude": "52.7565808",
    "longitude": "103.6388109"
  },
  {
    "district": "Сибирский",
    "region": "Иркутская",
    "region_type": "обл",
    "city": "Усть-Илимск",
    "city_type": "г",
    "latitude": "57.9430504",
    "longitude": "102.7415734"
  },
  {
    "district": "Сибирский",
    "region": "Иркутская",
    "region_type": "обл",
    "city": "Усть-Кут",
    "city_type": "г",
    "latitude": "56.7928178",
    "longitude": "105.7757343"
  },
  {
    "district": "Сибирский",
    "region": "Иркутская",
    "region_type": "обл",
    "city": "Черемхово",
    "city_type": "г",
    "latitude": "53.1369095",
    "longitude": "103.0901268"
  },
  {
    "district": "Сибирский",
    "region": "Иркутская",
    "region_type": "обл",
    "city": "Шелехов",
    "city_type": "г",
    "latitude": "52.2102538",
    "longitude": "104.0973294"
  },
  {
    "district": "Северо-Кавказский",
    "region": "Кабардино-Балкарская",
    "region_type": "респ",
    "city": "Баксан",
    "city_type": "г",
    "latitude": "43.6819137",
    "longitude": "43.5345036"
  },
  {
    "district": "Северо-Кавказский",
    "region": "Кабардино-Балкарская",
    "region_type": "респ",
    "city": "Майский",
    "city_type": "г",
    "latitude": "43.6281516",
    "longitude": "44.0517314"
  },
  {
    "district": "Северо-Кавказский",
    "region": "Кабардино-Балкарская",
    "region_type": "респ",
    "city": "Нальчик",
    "city_type": "г",
    "latitude": "43.4845464",
    "longitude": "43.60713"
  },
  {
    "district": "Северо-Кавказский",
    "region": "Кабардино-Балкарская",
    "region_type": "респ",
    "city": "Нарткала",
    "city_type": "г",
    "latitude": "43.5578075",
    "longitude": "43.8575925"
  },
  {
    "district": "Северо-Кавказский",
    "region": "Кабардино-Балкарская",
    "region_type": "респ",
    "city": "Прохладный",
    "city_type": "г",
    "latitude": "43.7589602",
    "longitude": "44.0102409"
  },
  {
    "district": "Северо-Кавказский",
    "region": "Кабардино-Балкарская",
    "region_type": "респ",
    "city": "Терек",
    "city_type": "г",
    "latitude": "43.4839358",
    "longitude": "44.1402161"
  },
  {
    "district": "Северо-Кавказский",
    "region": "Кабардино-Балкарская",
    "region_type": "респ",
    "city": "Тырныауз",
    "city_type": "г",
    "latitude": "43.3981585",
    "longitude": "42.9213582"
  },
  {
    "district": "Северо-Кавказский",
    "region": "Кабардино-Балкарская",
    "region_type": "респ",
    "city": "Чегем",
    "city_type": "г",
    "latitude": "43.5671525",
    "longitude": "43.5865792"
  },
  {
    "district": "Северо-Западный",
    "region": "Калининградская",
    "region_type": "обл",
    "city": "Багратионовск",
    "city_type": "г",
    "latitude": "54.3866518",
    "longitude": "20.6418091"
  },
  {
    "district": "Северо-Западный",
    "region": "Калининградская",
    "region_type": "обл",
    "city": "Балтийск",
    "city_type": "г",
    "latitude": "54.6513372",
    "longitude": "19.9140572"
  },
  {
    "district": "Северо-Западный",
    "region": "Калининградская",
    "region_type": "обл",
    "city": "Гвардейск",
    "city_type": "г",
    "latitude": "54.6588378",
    "longitude": "21.0501388"
  },
  {
    "district": "Северо-Западный",
    "region": "Калининградская",
    "region_type": "обл",
    "city": "Гурьевск",
    "city_type": "г",
    "latitude": "54.770638",
    "longitude": "20.6039767"
  },
  {
    "district": "Северо-Западный",
    "region": "Калининградская",
    "region_type": "обл",
    "city": "Гусев",
    "city_type": "г",
    "latitude": "54.5915455",
    "longitude": "22.1942445"
  },
  {
    "district": "Северо-Западный",
    "region": "Калининградская",
    "region_type": "обл",
    "city": "Зеленоградск",
    "city_type": "г",
    "latitude": "54.9600185",
    "longitude": "20.4753652"
  },
  {
    "district": "Северо-Западный",
    "region": "Калининградская",
    "region_type": "обл",
    "city": "Калининград",
    "city_type": "г",
    "latitude": "54.7074702",
    "longitude": "20.5073241"
  },
  {
    "district": "Северо-Западный",
    "region": "Калининградская",
    "region_type": "обл",
    "city": "Краснознаменск",
    "city_type": "г",
    "latitude": "54.9453423",
    "longitude": "22.4928745"
  },
  {
    "district": "Северо-Западный",
    "region": "Калининградская",
    "region_type": "обл",
    "city": "Ладушкин",
    "city_type": "г",
    "latitude": "54.5692156",
    "longitude": "20.1690153"
  },
  {
    "district": "Северо-Западный",
    "region": "Калининградская",
    "region_type": "обл",
    "city": "Мамоново",
    "city_type": "г",
    "latitude": "54.4646036",
    "longitude": "19.9453482"
  },
  {
    "district": "Северо-Западный",
    "region": "Калининградская",
    "region_type": "обл",
    "city": "Неман",
    "city_type": "г",
    "latitude": "55.0316524",
    "longitude": "22.0324064"
  },
  {
    "district": "Северо-Западный",
    "region": "Калининградская",
    "region_type": "обл",
    "city": "Нестеров",
    "city_type": "г",
    "latitude": "54.6313814",
    "longitude": "22.5713736"
  },
  {
    "district": "Северо-Западный",
    "region": "Калининградская",
    "region_type": "обл",
    "city": "Озерск",
    "city_type": "г",
    "latitude": "54.4084705",
    "longitude": "22.0134438"
  },
  {
    "district": "Северо-Западный",
    "region": "Калининградская",
    "region_type": "обл",
    "city": "Пионерский",
    "city_type": "г",
    "latitude": "54.9516574",
    "longitude": "20.2277424"
  },
  {
    "district": "Северо-Западный",
    "region": "Калининградская",
    "region_type": "обл",
    "city": "Полесск",
    "city_type": "г",
    "latitude": "54.8625126",
    "longitude": "21.0998067"
  },
  {
    "district": "Северо-Западный",
    "region": "Калининградская",
    "region_type": "обл",
    "city": "Правдинск",
    "city_type": "г",
    "latitude": "54.4430986",
    "longitude": "21.0085269"
  },
  {
    "district": "Северо-Западный",
    "region": "Калининградская",
    "region_type": "обл",
    "city": "Приморск",
    "city_type": "г",
    "latitude": "54.7311437",
    "longitude": "19.9981926"
  },
  {
    "district": "Северо-Западный",
    "region": "Калининградская",
    "region_type": "обл",
    "city": "Светлогорск",
    "city_type": "г",
    "latitude": "54.9439286",
    "longitude": "20.1514295"
  },
  {
    "district": "Северо-Западный",
    "region": "Калининградская",
    "region_type": "обл",
    "city": "Светлый",
    "city_type": "г",
    "latitude": "54.6772897",
    "longitude": "20.1357595"
  },
  {
    "district": "Северо-Западный",
    "region": "Калининградская",
    "region_type": "обл",
    "city": "Славск",
    "city_type": "г",
    "latitude": "55.0449714",
    "longitude": "21.6742367"
  },
  {
    "district": "Северо-Западный",
    "region": "Калининградская",
    "region_type": "обл",
    "city": "Советск",
    "city_type": "г",
    "latitude": "55.0809336",
    "longitude": "21.8886106"
  },
  {
    "district": "Северо-Западный",
    "region": "Калининградская",
    "region_type": "обл",
    "city": "Черняховск",
    "city_type": "г",
    "latitude": "54.6244751",
    "longitude": "21.7969062"
  },
  {
    "district": "Южный",
    "region": "Калмыкия",
    "region_type": "респ",
    "city": "Городовиковск",
    "city_type": "г",
    "latitude": "46.0875083",
    "longitude": "41.935537"
  },
  {
    "district": "Южный",
    "region": "Калмыкия",
    "region_type": "респ",
    "city": "Лагань",
    "city_type": "г",
    "latitude": "45.3930912",
    "longitude": "47.3432602"
  },
  {
    "district": "Южный",
    "region": "Калмыкия",
    "region_type": "респ",
    "city": "Элиста",
    "city_type": "г",
    "latitude": "46.3083344",
    "longitude": "44.2702088"
  },
  {
    "district": "Центральный",
    "region": "Калужская",
    "region_type": "обл",
    "city": "Балабаново",
    "city_type": "г",
    "latitude": "55.1773714",
    "longitude": "36.6566951"
  },
  {
    "district": "Центральный",
    "region": "Калужская",
    "region_type": "обл",
    "city": "Белоусово",
    "city_type": "г",
    "latitude": "55.0956803",
    "longitude": "36.677629"
  },
  {
    "district": "Центральный",
    "region": "Калужская",
    "region_type": "обл",
    "city": "Боровск",
    "city_type": "г",
    "latitude": "55.2130096",
    "longitude": "36.4926251"
  },
  {
    "district": "Центральный",
    "region": "Калужская",
    "region_type": "обл",
    "city": "Ермолино",
    "city_type": "г",
    "latitude": "55.1971758",
    "longitude": "36.5952722"
  },
  {
    "district": "Центральный",
    "region": "Калужская",
    "region_type": "обл",
    "city": "Жиздра",
    "city_type": "г",
    "latitude": "53.7521926",
    "longitude": "34.7386592"
  },
  {
    "district": "Центральный",
    "region": "Калужская",
    "region_type": "обл",
    "city": "Жуков",
    "city_type": "г",
    "latitude": "55.0301833",
    "longitude": "36.7394903"
  },
  {
    "district": "Центральный",
    "region": "Калужская",
    "region_type": "обл",
    "city": "Калуга",
    "city_type": "г",
    "latitude": "54.5059848",
    "longitude": "36.2516245"
  },
  {
    "district": "Центральный",
    "region": "Калужская",
    "region_type": "обл",
    "city": "Киров",
    "city_type": "г",
    "latitude": "54.0790111",
    "longitude": "34.3076201"
  },
  {
    "district": "Центральный",
    "region": "Калужская",
    "region_type": "обл",
    "city": "Козельск",
    "city_type": "г",
    "latitude": "54.0347201",
    "longitude": "35.780768"
  },
  {
    "district": "Центральный",
    "region": "Калужская",
    "region_type": "обл",
    "city": "Кондрово",
    "city_type": "г",
    "latitude": "54.7959473",
    "longitude": "35.9274842"
  },
  {
    "district": "Центральный",
    "region": "Калужская",
    "region_type": "обл",
    "city": "Кременки",
    "city_type": "г",
    "latitude": "54.8862447",
    "longitude": "37.1168701"
  },
  {
    "district": "Центральный",
    "region": "Калужская",
    "region_type": "обл",
    "city": "Людиново",
    "city_type": "г",
    "latitude": "53.8700828",
    "longitude": "34.4385915"
  },
  {
    "district": "Центральный",
    "region": "Калужская",
    "region_type": "обл",
    "city": "Малоярославец",
    "city_type": "г",
    "latitude": "55.0177123",
    "longitude": "36.4633603"
  },
  {
    "district": "Центральный",
    "region": "Калужская",
    "region_type": "обл",
    "city": "Медынь",
    "city_type": "г",
    "latitude": "54.9689785",
    "longitude": "35.8872168"
  },
  {
    "district": "Центральный",
    "region": "Калужская",
    "region_type": "обл",
    "city": "Мещовск",
    "city_type": "г",
    "latitude": "54.3191471",
    "longitude": "35.2816918"
  },
  {
    "district": "Центральный",
    "region": "Калужская",
    "region_type": "обл",
    "city": "Мосальск",
    "city_type": "г",
    "latitude": "54.4824939",
    "longitude": "34.9872239"
  },
  {
    "district": "Центральный",
    "region": "Калужская",
    "region_type": "обл",
    "city": "Обнинск",
    "city_type": "г",
    "latitude": "55.0943144",
    "longitude": "36.6121639"
  },
  {
    "district": "Центральный",
    "region": "Калужская",
    "region_type": "обл",
    "city": "Сосенский",
    "city_type": "г",
    "latitude": "54.0566016",
    "longitude": "35.9621646"
  },
  {
    "district": "Центральный",
    "region": "Калужская",
    "region_type": "обл",
    "city": "Спас-Деменск",
    "city_type": "г",
    "latitude": "54.409922",
    "longitude": "34.0189631"
  },
  {
    "district": "Центральный",
    "region": "Калужская",
    "region_type": "обл",
    "city": "Сухиничи",
    "city_type": "г",
    "latitude": "54.097296",
    "longitude": "35.3443568"
  },
  {
    "district": "Центральный",
    "region": "Калужская",
    "region_type": "обл",
    "city": "Таруса",
    "city_type": "г",
    "latitude": "54.7236477",
    "longitude": "37.1671"
  },
  {
    "district": "Центральный",
    "region": "Калужская",
    "region_type": "обл",
    "city": "Юхнов",
    "city_type": "г",
    "latitude": "54.7446445",
    "longitude": "35.2424346"
  },
  {
    "district": "Дальневосточный",
    "region": "Камчатский",
    "region_type": "край",
    "city": "Вилючинск",
    "city_type": "г",
    "latitude": "52.9302415",
    "longitude": "158.4057632"
  },
  {
    "district": "Дальневосточный",
    "region": "Камчатский",
    "region_type": "край",
    "city": "Елизово",
    "city_type": "г",
    "latitude": "53.1830375",
    "longitude": "158.3883548"
  },
  {
    "district": "Дальневосточный",
    "region": "Камчатский",
    "region_type": "край",
    "city": "Петропавловск-Камчатский",
    "city_type": "г",
    "latitude": "53.036908",
    "longitude": "158.6559254"
  },
  {
    "district": "Северо-Кавказский",
    "region": "Карачаево-Черкесская",
    "region_type": "респ",
    "city": "Карачаевск",
    "city_type": "г",
    "latitude": "43.7732525",
    "longitude": "41.9143472"
  },
  {
    "district": "Северо-Кавказский",
    "region": "Карачаево-Черкесская",
    "region_type": "респ",
    "city": "Теберда",
    "city_type": "г",
    "latitude": "43.4437731",
    "longitude": "41.7415142"
  },
  {
    "district": "Северо-Кавказский",
    "region": "Карачаево-Черкесская",
    "region_type": "респ",
    "city": "Усть-Джегута",
    "city_type": "г",
    "latitude": "44.0838442",
    "longitude": "41.9711046"
  },
  {
    "district": "Северо-Кавказский",
    "region": "Карачаево-Черкесская",
    "region_type": "респ",
    "city": "Черкесск",
    "city_type": "г",
    "latitude": "44.2269425",
    "longitude": "42.0466704"
  },
  {
    "district": "Северо-Западный",
    "region": "Карелия",
    "region_type": "респ",
    "city": "Беломорск",
    "city_type": "г",
    "latitude": "64.5378417",
    "longitude": "34.7799462"
  },
  {
    "district": "Северо-Западный",
    "region": "Карелия",
    "region_type": "респ",
    "city": "Кемь",
    "city_type": "г",
    "latitude": "64.9543539",
    "longitude": "34.5949263"
  },
  {
    "district": "Северо-Западный",
    "region": "Карелия",
    "region_type": "респ",
    "city": "Кондопога",
    "city_type": "г",
    "latitude": "62.2059817",
    "longitude": "34.2682122"
  },
  {
    "district": "Северо-Западный",
    "region": "Карелия",
    "region_type": "респ",
    "city": "Костомукша",
    "city_type": "г",
    "latitude": "64.5889398",
    "longitude": "30.6016832"
  },
  {
    "district": "Северо-Западный",
    "region": "Карелия",
    "region_type": "респ",
    "city": "Лахденпохья",
    "city_type": "г",
    "latitude": "61.518881",
    "longitude": "30.1996116"
  },
  {
    "district": "Северо-Западный",
    "region": "Карелия",
    "region_type": "респ",
    "city": "Медвежьегорск",
    "city_type": "г",
    "latitude": "62.9127626",
    "longitude": "34.4568489"
  },
  {
    "district": "Северо-Западный",
    "region": "Карелия",
    "region_type": "респ",
    "city": "Олонец",
    "city_type": "г",
    "latitude": "60.9794025",
    "longitude": "32.9725519"
  },
  {
    "district": "Северо-Западный",
    "region": "Карелия",
    "region_type": "респ",
    "city": "Петрозаводск",
    "city_type": "г",
    "latitude": "61.7891264",
    "longitude": "34.3596434"
  },
  {
    "district": "Северо-Западный",
    "region": "Карелия",
    "region_type": "респ",
    "city": "Питкяранта",
    "city_type": "г",
    "latitude": "61.5757191",
    "longitude": "31.4640557"
  },
  {
    "district": "Северо-Западный",
    "region": "Карелия",
    "region_type": "респ",
    "city": "Пудож",
    "city_type": "г",
    "latitude": "61.8058821",
    "longitude": "36.5329941"
  },
  {
    "district": "Северо-Западный",
    "region": "Карелия",
    "region_type": "респ",
    "city": "Сегежа",
    "city_type": "г",
    "latitude": "63.7437572",
    "longitude": "34.3126982"
  },
  {
    "district": "Северо-Западный",
    "region": "Карелия",
    "region_type": "респ",
    "city": "Сортавала",
    "city_type": "г",
    "latitude": "61.703367",
    "longitude": "30.6916998"
  },
  {
    "district": "Северо-Западный",
    "region": "Карелия",
    "region_type": "респ",
    "city": "Суоярви",
    "city_type": "г",
    "latitude": "62.0787293",
    "longitude": "32.3499386"
  },
  {
    "district": "Сибирский",
    "region": "Кемеровская область - Кузбасс",
    "region_type": "обл",
    "city": "Анжеро-Судженск",
    "city_type": "г",
    "latitude": "56.0786281",
    "longitude": "86.0201278"
  },
  {
    "district": "Сибирский",
    "region": "Кемеровская область - Кузбасс",
    "region_type": "обл",
    "city": "Белово",
    "city_type": "г",
    "latitude": "54.4220968",
    "longitude": "86.3037373"
  },
  {
    "district": "Сибирский",
    "region": "Кемеровская область - Кузбасс",
    "region_type": "обл",
    "city": "Березовский",
    "city_type": "г",
    "latitude": "55.6693513",
    "longitude": "86.2744459"
  },
  {
    "district": "Сибирский",
    "region": "Кемеровская область - Кузбасс",
    "region_type": "обл",
    "city": "Гурьевск",
    "city_type": "г",
    "latitude": "54.2859263",
    "longitude": "85.9475985"
  },
  {
    "district": "Сибирский",
    "region": "Кемеровская область - Кузбасс",
    "region_type": "обл",
    "city": "Калтан",
    "city_type": "г",
    "latitude": "53.5210919",
    "longitude": "87.2771636"
  },
  {
    "district": "Сибирский",
    "region": "Кемеровская область - Кузбасс",
    "region_type": "обл",
    "city": "Кемерово",
    "city_type": "г",
    "latitude": "55.3910651",
    "longitude": "86.0467781"
  },
  {
    "district": "Сибирский",
    "region": "Кемеровская область - Кузбасс",
    "region_type": "обл",
    "city": "Киселевск",
    "city_type": "г",
    "latitude": "54.0059999",
    "longitude": "86.6366116"
  },
  {
    "district": "Сибирский",
    "region": "Кемеровская область - Кузбасс",
    "region_type": "обл",
    "city": "Ленинск-Кузнецкий",
    "city_type": "г",
    "latitude": "54.6674492",
    "longitude": "86.1797324"
  },
  {
    "district": "Сибирский",
    "region": "Кемеровская область - Кузбасс",
    "region_type": "обл",
    "city": "Мариинск",
    "city_type": "г",
    "latitude": "56.2127383",
    "longitude": "87.7454924"
  },
  {
    "district": "Сибирский",
    "region": "Кемеровская область - Кузбасс",
    "region_type": "обл",
    "city": "Междуреченск",
    "city_type": "г",
    "latitude": "53.6865289",
    "longitude": "88.0702754"
  },
  {
    "district": "Сибирский",
    "region": "Кемеровская область - Кузбасс",
    "region_type": "обл",
    "city": "Мыски",
    "city_type": "г",
    "latitude": "53.7125695",
    "longitude": "87.8055646"
  },
  {
    "district": "Сибирский",
    "region": "Кемеровская область - Кузбасс",
    "region_type": "обл",
    "city": "Новокузнецк",
    "city_type": "г",
    "latitude": "53.794315",
    "longitude": "87.2142745"
  },
  {
    "district": "Сибирский",
    "region": "Кемеровская область - Кузбасс",
    "region_type": "обл",
    "city": "Осинники",
    "city_type": "г",
    "latitude": "53.5988055",
    "longitude": "87.3371272"
  },
  {
    "district": "Сибирский",
    "region": "Кемеровская область - Кузбасс",
    "region_type": "обл",
    "city": "Полысаево",
    "city_type": "г",
    "latitude": "54.6055",
    "longitude": "86.2809208"
  },
  {
    "district": "Сибирский",
    "region": "Кемеровская область - Кузбасс",
    "region_type": "обл",
    "city": "Прокопьевск",
    "city_type": "г",
    "latitude": "53.8604265",
    "longitude": "86.7183577"
  },
  {
    "district": "Сибирский",
    "region": "Кемеровская область - Кузбасс",
    "region_type": "обл",
    "city": "Салаир",
    "city_type": "г",
    "latitude": "54.2351735",
    "longitude": "85.8030733"
  },
  {
    "district": "Сибирский",
    "region": "Кемеровская область - Кузбасс",
    "region_type": "обл",
    "city": "Тайга",
    "city_type": "г",
    "latitude": "56.0622131",
    "longitude": "85.6207182"
  },
  {
    "district": "Сибирский",
    "region": "Кемеровская область - Кузбасс",
    "region_type": "обл",
    "city": "Таштагол",
    "city_type": "г",
    "latitude": "52.759313",
    "longitude": "87.8476546"
  },
  {
    "district": "Сибирский",
    "region": "Кемеровская область - Кузбасс",
    "region_type": "обл",
    "city": "Топки",
    "city_type": "г",
    "latitude": "55.2764707",
    "longitude": "85.6152619"
  },
  {
    "district": "Сибирский",
    "region": "Кемеровская область - Кузбасс",
    "region_type": "обл",
    "city": "Юрга",
    "city_type": "г",
    "latitude": "55.7202694",
    "longitude": "84.8886399"
  },
  {
    "district": "Приволжский",
    "region": "Кировская",
    "region_type": "обл",
    "city": "Белая Холуница",
    "city_type": "г",
    "latitude": "58.8415239",
    "longitude": "50.8460699"
  },
  {
    "district": "Приволжский",
    "region": "Кировская",
    "region_type": "обл",
    "city": "Вятские Поляны",
    "city_type": "г",
    "latitude": "56.2284817",
    "longitude": "51.0614855"
  },
  {
    "district": "Приволжский",
    "region": "Кировская",
    "region_type": "обл",
    "city": "Зуевка",
    "city_type": "г",
    "latitude": "58.4032152",
    "longitude": "51.1331606"
  },
  {
    "district": "Приволжский",
    "region": "Кировская",
    "region_type": "обл",
    "city": "Киров",
    "city_type": "г",
    "latitude": "58.6035264",
    "longitude": "49.6679304"
  },
  {
    "district": "Приволжский",
    "region": "Кировская",
    "region_type": "обл",
    "city": "Кирово-Чепецк",
    "city_type": "г",
    "latitude": "58.5559424",
    "longitude": "50.0316848"
  },
  {
    "district": "Приволжский",
    "region": "Кировская",
    "region_type": "обл",
    "city": "Кирс",
    "city_type": "г",
    "latitude": "59.340056",
    "longitude": "52.2414437"
  },
  {
    "district": "Приволжский",
    "region": "Кировская",
    "region_type": "обл",
    "city": "Котельнич",
    "city_type": "г",
    "latitude": "58.3034832",
    "longitude": "48.3475597"
  },
  {
    "district": "Приволжский",
    "region": "Кировская",
    "region_type": "обл",
    "city": "Луза",
    "city_type": "г",
    "latitude": "60.6290609",
    "longitude": "47.2612445"
  },
  {
    "district": "Приволжский",
    "region": "Кировская",
    "region_type": "обл",
    "city": "Малмыж",
    "city_type": "г",
    "latitude": "56.5243844",
    "longitude": "50.6782739"
  },
  {
    "district": "Приволжский",
    "region": "Кировская",
    "region_type": "обл",
    "city": "Мураши",
    "city_type": "г",
    "latitude": "59.3955383",
    "longitude": "48.9638417"
  },
  {
    "district": "Приволжский",
    "region": "Кировская",
    "region_type": "обл",
    "city": "Нолинск",
    "city_type": "г",
    "latitude": "57.5597284",
    "longitude": "49.93575"
  },
  {
    "district": "Приволжский",
    "region": "Кировская",
    "region_type": "обл",
    "city": "Омутнинск",
    "city_type": "г",
    "latitude": "58.6698913",
    "longitude": "52.1894564"
  },
  {
    "district": "Приволжский",
    "region": "Кировская",
    "region_type": "обл",
    "city": "Орлов",
    "city_type": "г",
    "latitude": "58.5389776",
    "longitude": "48.8927723"
  },
  {
    "district": "Приволжский",
    "region": "Кировская",
    "region_type": "обл",
    "city": "Слободской",
    "city_type": "г",
    "latitude": "58.7311574",
    "longitude": "50.1669249"
  },
  {
    "district": "Приволжский",
    "region": "Кировская",
    "region_type": "обл",
    "city": "Советск",
    "city_type": "г",
    "latitude": "57.584196",
    "longitude": "48.9590272"
  },
  {
    "district": "Приволжский",
    "region": "Кировская",
    "region_type": "обл",
    "city": "Сосновка",
    "city_type": "г",
    "latitude": "56.2532741",
    "longitude": "51.2833642"
  },
  {
    "district": "Приволжский",
    "region": "Кировская",
    "region_type": "обл",
    "city": "Уржум",
    "city_type": "г",
    "latitude": "57.1097477",
    "longitude": "50.0058097"
  },
  {
    "district": "Приволжский",
    "region": "Кировская",
    "region_type": "обл",
    "city": "Яранск",
    "city_type": "г",
    "latitude": "57.3040326",
    "longitude": "47.8478737"
  },
  {
    "district": "Северо-Западный",
    "region": "Коми",
    "region_type": "респ",
    "city": "Воркута",
    "city_type": "г",
    "latitude": "67.4974082",
    "longitude": "64.061034"
  },
  {
    "district": "Северо-Западный",
    "region": "Коми",
    "region_type": "респ",
    "city": "Вуктыл",
    "city_type": "г",
    "latitude": "63.8615274",
    "longitude": "57.3165402"
  },
  {
    "district": "Северо-Западный",
    "region": "Коми",
    "region_type": "респ",
    "city": "Емва",
    "city_type": "г",
    "latitude": "62.5965137",
    "longitude": "50.8732125"
  },
  {
    "district": "Северо-Западный",
    "region": "Коми",
    "region_type": "респ",
    "city": "Инта",
    "city_type": "г",
    "latitude": "66.0367316",
    "longitude": "60.1152961"
  },
  {
    "district": "Северо-Западный",
    "region": "Коми",
    "region_type": "респ",
    "city": "Микунь",
    "city_type": "г",
    "latitude": "62.3579068",
    "longitude": "50.0719503"
  },
  {
    "district": "Северо-Западный",
    "region": "Коми",
    "region_type": "респ",
    "city": "Печора",
    "city_type": "г",
    "latitude": "65.148584",
    "longitude": "57.2239777"
  },
  {
    "district": "Северо-Западный",
    "region": "Коми",
    "region_type": "респ",
    "city": "Сосногорск",
    "city_type": "г",
    "latitude": "63.5989841",
    "longitude": "53.876293"
  },
  {
    "district": "Северо-Западный",
    "region": "Коми",
    "region_type": "респ",
    "city": "Сыктывкар",
    "city_type": "г",
    "latitude": "61.6686617",
    "longitude": "50.8358151"
  },
  {
    "district": "Северо-Западный",
    "region": "Коми",
    "region_type": "респ",
    "city": "Усинск",
    "city_type": "г",
    "latitude": "65.994147",
    "longitude": "57.5569423"
  },
  {
    "district": "Северо-Западный",
    "region": "Коми",
    "region_type": "респ",
    "city": "Ухта",
    "city_type": "г",
    "latitude": "63.5565514",
    "longitude": "53.7014239"
  },
  {
    "district": "Центральный",
    "region": "Костромская",
    "region_type": "обл",
    "city": "Буй",
    "city_type": "г",
    "latitude": "58.4733277",
    "longitude": "41.5306822"
  },
  {
    "district": "Центральный",
    "region": "Костромская",
    "region_type": "обл",
    "city": "Волгореченск",
    "city_type": "г",
    "latitude": "57.4424559",
    "longitude": "41.1594201"
  },
  {
    "district": "Центральный",
    "region": "Костромская",
    "region_type": "обл",
    "city": "Галич",
    "city_type": "г",
    "latitude": "58.3828191",
    "longitude": "42.3654013"
  },
  {
    "district": "Центральный",
    "region": "Костромская",
    "region_type": "обл",
    "city": "Кологрив",
    "city_type": "г",
    "latitude": "58.8269323",
    "longitude": "44.3184927"
  },
  {
    "district": "Центральный",
    "region": "Костромская",
    "region_type": "обл",
    "city": "Кострома",
    "city_type": "г",
    "latitude": "57.768",
    "longitude": "40.927"
  },
  {
    "district": "Центральный",
    "region": "Костромская",
    "region_type": "обл",
    "city": "Макарьев",
    "city_type": "г",
    "latitude": "57.8807152",
    "longitude": "43.8014197"
  },
  {
    "district": "Центральный",
    "region": "Костромская",
    "region_type": "обл",
    "city": "Мантурово",
    "city_type": "г",
    "latitude": "58.3265441",
    "longitude": "44.757494"
  },
  {
    "district": "Центральный",
    "region": "Костромская",
    "region_type": "обл",
    "city": "Нерехта",
    "city_type": "г",
    "latitude": "57.4543369",
    "longitude": "40.5723598"
  },
  {
    "district": "Центральный",
    "region": "Костромская",
    "region_type": "обл",
    "city": "Нея",
    "city_type": "г",
    "latitude": "58.2943349",
    "longitude": "43.8780948"
  },
  {
    "district": "Центральный",
    "region": "Костромская",
    "region_type": "обл",
    "city": "Солигалич",
    "city_type": "г",
    "latitude": "59.0784867",
    "longitude": "42.2878423"
  },
  {
    "district": "Центральный",
    "region": "Костромская",
    "region_type": "обл",
    "city": "Чухлома",
    "city_type": "г",
    "latitude": "58.753421",
    "longitude": "42.6884958"
  },
  {
    "district": "Центральный",
    "region": "Костромская",
    "region_type": "обл",
    "city": "Шарья",
    "city_type": "г",
    "latitude": "58.3760542",
    "longitude": "45.4062414"
  },
  {
    "district": "Южный",
    "region": "Краснодарский",
    "region_type": "край",
    "city": "Абинск",
    "city_type": "г",
    "latitude": "44.8679655",
    "longitude": "38.1618157"
  },
  {
    "district": "Южный",
    "region": "Краснодарский",
    "region_type": "край",
    "city": "Анапа",
    "city_type": "г",
    "latitude": "44.8950433",
    "longitude": "37.3163282"
  },
  {
    "district": "Южный",
    "region": "Краснодарский",
    "region_type": "край",
    "city": "Апшеронск",
    "city_type": "г",
    "latitude": "44.4584006",
    "longitude": "39.7299824"
  },
  {
    "district": "Южный",
    "region": "Краснодарский",
    "region_type": "край",
    "city": "Армавир",
    "city_type": "г",
    "latitude": "45.0012149",
    "longitude": "41.1324168"
  },
  {
    "district": "Южный",
    "region": "Краснодарский",
    "region_type": "край",
    "city": "Белореченск",
    "city_type": "г",
    "latitude": "44.7651876",
    "longitude": "39.8781494"
  },
  {
    "district": "Южный",
    "region": "Краснодарский",
    "region_type": "край",
    "city": "Геленджик",
    "city_type": "г",
    "latitude": "44.5630007",
    "longitude": "38.0790852"
  },
  {
    "district": "Южный",
    "region": "Краснодарский",
    "region_type": "край",
    "city": "Горячий Ключ",
    "city_type": "г",
    "latitude": "44.6344864",
    "longitude": "39.1354738"
  },
  {
    "district": "Южный",
    "region": "Краснодарский",
    "region_type": "край",
    "city": "Гулькевичи",
    "city_type": "г",
    "latitude": "45.3605121",
    "longitude": "40.6918389"
  },
  {
    "district": "Южный",
    "region": "Краснодарский",
    "region_type": "край",
    "city": "Ейск",
    "city_type": "г",
    "latitude": "46.71157",
    "longitude": "38.2763895"
  },
  {
    "district": "Южный",
    "region": "Краснодарский",
    "region_type": "край",
    "city": "Кореновск",
    "city_type": "г",
    "latitude": "45.4641703",
    "longitude": "39.458949"
  },
  {
    "district": "Южный",
    "region": "Краснодарский",
    "region_type": "край",
    "city": "Краснодар",
    "city_type": "г",
    "latitude": "45.0401604",
    "longitude": "38.9759647"
  },
  {
    "district": "Южный",
    "region": "Краснодарский",
    "region_type": "край",
    "city": "Кропоткин",
    "city_type": "г",
    "latitude": "45.4333007",
    "longitude": "40.5727951"
  },
  {
    "district": "Южный",
    "region": "Краснодарский",
    "region_type": "край",
    "city": "Крымск",
    "city_type": "г",
    "latitude": "44.9344404",
    "longitude": "37.9855795"
  },
  {
    "district": "Южный",
    "region": "Краснодарский",
    "region_type": "край",
    "city": "Курганинск",
    "city_type": "г",
    "latitude": "44.8877025",
    "longitude": "40.5913245"
  },
  {
    "district": "Южный",
    "region": "Краснодарский",
    "region_type": "край",
    "city": "Лабинск",
    "city_type": "г",
    "latitude": "44.6354363",
    "longitude": "40.7245341"
  },
  {
    "district": "Южный",
    "region": "Краснодарский",
    "region_type": "край",
    "city": "Новокубанск",
    "city_type": "г",
    "latitude": "45.1038699",
    "longitude": "41.0475175"
  },
  {
    "district": "Южный",
    "region": "Краснодарский",
    "region_type": "край",
    "city": "Новороссийск",
    "city_type": "г",
    "latitude": "44.7235026",
    "longitude": "37.7686135"
  },
  {
    "district": "Южный",
    "region": "Краснодарский",
    "region_type": "край",
    "city": "Приморско-Ахтарск",
    "city_type": "г",
    "latitude": "46.0515432",
    "longitude": "38.1704875"
  },
  {
    "district": "Южный",
    "region": "Краснодарский",
    "region_type": "край",
    "city": "Славянск-на-Кубани",
    "city_type": "г",
    "latitude": "45.2603626",
    "longitude": "38.1259774"
  },
  {
    "district": "Южный",
    "region": "Краснодарский",
    "region_type": "край",
    "city": "Сочи",
    "city_type": "г",
    "latitude": "43.5854551",
    "longitude": "39.7231548"
  },
  {
    "district": "Южный",
    "region": "Краснодарский",
    "region_type": "край",
    "city": "Темрюк",
    "city_type": "г",
    "latitude": "45.2610949",
    "longitude": "37.4454412"
  },
  {
    "district": "Южный",
    "region": "Краснодарский",
    "region_type": "край",
    "city": "Тимашевск",
    "city_type": "г",
    "latitude": "45.615923",
    "longitude": "38.9351837"
  },
  {
    "district": "Южный",
    "region": "Краснодарский",
    "region_type": "край",
    "city": "Тихорецк",
    "city_type": "г",
    "latitude": "45.8546345",
    "longitude": "40.1260267"
  },
  {
    "district": "Южный",
    "region": "Краснодарский",
    "region_type": "край",
    "city": "Туапсе",
    "city_type": "г",
    "latitude": "44.1105335",
    "longitude": "39.0824904"
  },
  {
    "district": "Южный",
    "region": "Краснодарский",
    "region_type": "край",
    "city": "Усть-Лабинск",
    "city_type": "г",
    "latitude": "45.2227359",
    "longitude": "39.6929577"
  },
  {
    "district": "Южный",
    "region": "Краснодарский",
    "region_type": "край",
    "city": "Хадыженск",
    "city_type": "г",
    "latitude": "44.4122963",
    "longitude": "39.5320258"
  },
  {
    "district": "Сибирский",
    "region": "Красноярский",
    "region_type": "край",
    "city": "Артемовск",
    "city_type": "г",
    "latitude": "54.3473075",
    "longitude": "93.4358377"
  },
  {
    "district": "Сибирский",
    "region": "Красноярский",
    "region_type": "край",
    "city": "Ачинск",
    "city_type": "г",
    "latitude": "56.253907",
    "longitude": "90.4794397"
  },
  {
    "district": "Сибирский",
    "region": "Красноярский",
    "region_type": "край",
    "city": "Боготол",
    "city_type": "г",
    "latitude": "56.2098468",
    "longitude": "89.5299336"
  },
  {
    "district": "Сибирский",
    "region": "Красноярский",
    "region_type": "край",
    "city": "Бородино",
    "city_type": "г",
    "latitude": "55.9054121",
    "longitude": "94.9020967"
  },
  {
    "district": "Сибирский",
    "region": "Красноярский",
    "region_type": "край",
    "city": "Дивногорск",
    "city_type": "г",
    "latitude": "55.9576784",
    "longitude": "92.3800687"
  },
  {
    "district": "Сибирский",
    "region": "Красноярский",
    "region_type": "край",
    "city": "Дудинка",
    "city_type": "г",
    "latitude": "69.4031364",
    "longitude": "86.1907218"
  },
  {
    "district": "Сибирский",
    "region": "Красноярский",
    "region_type": "край",
    "city": "Енисейск",
    "city_type": "г",
    "latitude": "58.4485261",
    "longitude": "92.1651083"
  },
  {
    "district": "Сибирский",
    "region": "Красноярский",
    "region_type": "край",
    "city": "Железногорск",
    "city_type": "г",
    "latitude": "56.2529035",
    "longitude": "93.532273"
  },
  {
    "district": "Сибирский",
    "region": "Красноярский",
    "region_type": "край",
    "city": "Заозерный",
    "city_type": "г",
    "latitude": "55.9617752",
    "longitude": "94.7091491"
  },
  {
    "district": "Сибирский",
    "region": "Красноярский",
    "region_type": "край",
    "city": "Зеленогорск",
    "city_type": "г",
    "latitude": "56.1131564",
    "longitude": "94.5888103"
  },
  {
    "district": "Сибирский",
    "region": "Красноярский",
    "region_type": "край",
    "city": "Игарка",
    "city_type": "г",
    "latitude": "67.4666901",
    "longitude": "86.5812794"
  },
  {
    "district": "Сибирский",
    "region": "Красноярский",
    "region_type": "край",
    "city": "Иланский",
    "city_type": "г",
    "latitude": "56.2374037",
    "longitude": "96.067267"
  },
  {
    "district": "Сибирский",
    "region": "Красноярский",
    "region_type": "край",
    "city": "Канск",
    "city_type": "г",
    "latitude": "56.2051282",
    "longitude": "95.7051096"
  },
  {
    "district": "Сибирский",
    "region": "Красноярский",
    "region_type": "край",
    "city": "Кодинск",
    "city_type": "г",
    "latitude": "58.6032644",
    "longitude": "99.1797962"
  },
  {
    "district": "Сибирский",
    "region": "Красноярский",
    "region_type": "край",
    "city": "Красноярск",
    "city_type": "г",
    "latitude": "56.0093879",
    "longitude": "92.8524806"
  },
  {
    "district": "Сибирский",
    "region": "Красноярский",
    "region_type": "край",
    "city": "Лесосибирск",
    "city_type": "г",
    "latitude": "58.221681",
    "longitude": "92.5037872"
  },
  {
    "district": "Сибирский",
    "region": "Красноярский",
    "region_type": "край",
    "city": "Минусинск",
    "city_type": "г",
    "latitude": "53.7104586",
    "longitude": "91.6872907"
  },
  {
    "district": "Сибирский",
    "region": "Красноярский",
    "region_type": "край",
    "city": "Назарово",
    "city_type": "г",
    "latitude": "56.0113799",
    "longitude": "90.4168775"
  },
  {
    "district": "Сибирский",
    "region": "Красноярский",
    "region_type": "край",
    "city": "Норильск",
    "city_type": "г",
    "latitude": "69.3489978",
    "longitude": "88.2009846"
  },
  {
    "district": "Сибирский",
    "region": "Красноярский",
    "region_type": "край",
    "city": "Сосновоборск",
    "city_type": "г",
    "latitude": "56.1202647",
    "longitude": "93.3354121"
  },
  {
    "district": "Сибирский",
    "region": "Красноярский",
    "region_type": "край",
    "city": "Ужур",
    "city_type": "г",
    "latitude": "55.3141969",
    "longitude": "89.8333918"
  },
  {
    "district": "Сибирский",
    "region": "Красноярский",
    "region_type": "край",
    "city": "Уяр",
    "city_type": "г",
    "latitude": "55.8131263",
    "longitude": "94.3282601"
  },
  {
    "district": "Сибирский",
    "region": "Красноярский",
    "region_type": "край",
    "city": "Шарыпово",
    "city_type": "г",
    "latitude": "55.5389739",
    "longitude": "89.1801044"
  },
  {
    "district": "Южный",
    "region": "Крым",
    "region_type": "респ",
    "city": "Ялта",
    "city_type": "г",
    "latitude": "44.4164605",
    "longitude": "34.0444797"
  },
  {
    "district": "Южный",
    "region": "Крым",
    "region_type": "респ",
    "city": "Алушта",
    "city_type": "г",
    "latitude": "44.6764304",
    "longitude": "34.4100624"
  },
  {
    "district": "Южный",
    "region": "Крым",
    "region_type": "респ",
    "city": "Армянск",
    "city_type": "г",
    "latitude": "46.1059307",
    "longitude": "33.6910012"
  },
  {
    "district": "Южный",
    "region": "Крым",
    "region_type": "респ",
    "city": "Бахчисарай",
    "city_type": "г",
    "latitude": "44.7514769",
    "longitude": "33.8752176"
  },
  {
    "district": "Южный",
    "region": "Крым",
    "region_type": "респ",
    "city": "Белогорск",
    "city_type": "г",
    "latitude": "45.057202",
    "longitude": "34.5999029"
  },
  {
    "district": "Южный",
    "region": "Крым",
    "region_type": "респ",
    "city": "Джанкой",
    "city_type": "г",
    "latitude": "45.7092306",
    "longitude": "34.3883372"
  },
  {
    "district": "Южный",
    "region": "Крым",
    "region_type": "респ",
    "city": "Евпатория",
    "city_type": "г",
    "latitude": "45.190629",
    "longitude": "33.367634"
  },
  {
    "district": "Южный",
    "region": "Крым",
    "region_type": "респ",
    "city": "Керчь",
    "city_type": "г",
    "latitude": "45.3562627",
    "longitude": "36.4674513"
  },
  {
    "district": "Южный",
    "region": "Крым",
    "region_type": "респ",
    "city": "Красноперекопск",
    "city_type": "г",
    "latitude": "45.9537576",
    "longitude": "33.7921939"
  },
  {
    "district": "Южный",
    "region": "Крым",
    "region_type": "респ",
    "city": "Саки",
    "city_type": "г",
    "latitude": "45.1341997",
    "longitude": "33.6033383"
  },
  {
    "district": "Южный",
    "region": "Крым",
    "region_type": "респ",
    "city": "Симферополь",
    "city_type": "г",
    "latitude": "44.9482948",
    "longitude": "34.1001151"
  },
  {
    "district": "Южный",
    "region": "Крым",
    "region_type": "респ",
    "city": "Старый Крым",
    "city_type": "г",
    "latitude": "45.029058",
    "longitude": "35.0901474"
  },
  {
    "district": "Южный",
    "region": "Крым",
    "region_type": "респ",
    "city": "Судак",
    "city_type": "г",
    "latitude": "44.8504679",
    "longitude": "34.9762034"
  },
  {
    "district": "Южный",
    "region": "Крым",
    "region_type": "респ",
    "city": "Феодосия",
    "city_type": "г",
    "latitude": "45.0318393",
    "longitude": "35.3824259"
  },
  {
    "district": "Южный",
    "region": "Крым",
    "region_type": "респ",
    "city": "Щелкино",
    "city_type": "г",
    "latitude": "45.4288991",
    "longitude": "35.825165"
  },
  {
    "district": "Южный",
    "region": "Крым",
    "region_type": "респ",
    "city": "Ялта",
    "city_type": "г",
    "latitude": "44.4953612",
    "longitude": "34.166308"
  },
  {
    "district": "Уральский",
    "region": "Курганская",
    "region_type": "обл",
    "city": "Далматово",
    "city_type": "г",
    "latitude": "56.262114",
    "longitude": "62.9387011"
  },
  {
    "district": "Уральский",
    "region": "Курганская",
    "region_type": "обл",
    "city": "Катайск",
    "city_type": "г",
    "latitude": "56.290809",
    "longitude": "62.5800359"
  },
  {
    "district": "Уральский",
    "region": "Курганская",
    "region_type": "обл",
    "city": "Курган",
    "city_type": "г",
    "latitude": "55.4443883",
    "longitude": "65.3161963"
  },
  {
    "district": "Уральский",
    "region": "Курганская",
    "region_type": "обл",
    "city": "Куртамыш",
    "city_type": "г",
    "latitude": "54.9368539",
    "longitude": "64.4203722"
  },
  {
    "district": "Уральский",
    "region": "Курганская",
    "region_type": "обл",
    "city": "Макушино",
    "city_type": "г",
    "latitude": "55.2153947",
    "longitude": "67.2451705"
  },
  {
    "district": "Уральский",
    "region": "Курганская",
    "region_type": "обл",
    "city": "Петухово",
    "city_type": "г",
    "latitude": "55.0650077",
    "longitude": "67.8873408"
  },
  {
    "district": "Уральский",
    "region": "Курганская",
    "region_type": "обл",
    "city": "Шадринск",
    "city_type": "г",
    "latitude": "56.0870344",
    "longitude": "63.6297182"
  },
  {
    "district": "Уральский",
    "region": "Курганская",
    "region_type": "обл",
    "city": "Шумиха",
    "city_type": "г",
    "latitude": "55.2280246",
    "longitude": "63.2901272"
  },
  {
    "district": "Уральский",
    "region": "Курганская",
    "region_type": "обл",
    "city": "Щучье",
    "city_type": "г",
    "latitude": "55.2087637",
    "longitude": "62.7478548"
  },
  {
    "district": "Центральный",
    "region": "Курская",
    "region_type": "обл",
    "city": "Дмитриев",
    "city_type": "г",
    "latitude": "52.1268464",
    "longitude": "35.0739038"
  },
  {
    "district": "Центральный",
    "region": "Курская",
    "region_type": "обл",
    "city": "Железногорск",
    "city_type": "г",
    "latitude": "52.3380202",
    "longitude": "35.3516867"
  },
  {
    "district": "Центральный",
    "region": "Курская",
    "region_type": "обл",
    "city": "Курск",
    "city_type": "г",
    "latitude": "51.7303637",
    "longitude": "36.1925603"
  },
  {
    "district": "Центральный",
    "region": "Курская",
    "region_type": "обл",
    "city": "Курчатов",
    "city_type": "г",
    "latitude": "51.6604083",
    "longitude": "35.6572224"
  },
  {
    "district": "Центральный",
    "region": "Курская",
    "region_type": "обл",
    "city": "Льгов",
    "city_type": "г",
    "latitude": "51.6597148",
    "longitude": "35.2612491"
  },
  {
    "district": "Центральный",
    "region": "Курская",
    "region_type": "обл",
    "city": "Обоянь",
    "city_type": "г",
    "latitude": "51.2119324",
    "longitude": "36.2755133"
  },
  {
    "district": "Центральный",
    "region": "Курская",
    "region_type": "обл",
    "city": "Рыльск",
    "city_type": "г",
    "latitude": "51.5681314",
    "longitude": "34.6802597"
  },
  {
    "district": "Центральный",
    "region": "Курская",
    "region_type": "обл",
    "city": "Суджа",
    "city_type": "г",
    "latitude": "51.1918927",
    "longitude": "35.2720915"
  },
  {
    "district": "Центральный",
    "region": "Курская",
    "region_type": "обл",
    "city": "Фатеж",
    "city_type": "г",
    "latitude": "52.0917728",
    "longitude": "35.8538706"
  },
  {
    "district": "Центральный",
    "region": "Курская",
    "region_type": "обл",
    "city": "Щигры",
    "city_type": "г",
    "latitude": "51.8786014",
    "longitude": "36.8910945"
  },
  {
    "district": "Северо-Западный",
    "region": "Ленинградская",
    "region_type": "обл",
    "city": "Бокситогорск",
    "city_type": "г",
    "latitude": "59.4734797",
    "longitude": "33.845688"
  },
  {
    "district": "Северо-Западный",
    "region": "Ленинградская",
    "region_type": "обл",
    "city": "Волосово",
    "city_type": "г",
    "latitude": "59.4445408",
    "longitude": "29.4923355"
  },
  {
    "district": "Северо-Западный",
    "region": "Ленинградская",
    "region_type": "обл",
    "city": "Волхов",
    "city_type": "г",
    "latitude": "59.9005958",
    "longitude": "32.3520756"
  },
  {
    "district": "Северо-Западный",
    "region": "Ленинградская",
    "region_type": "обл",
    "city": "Всеволожск",
    "city_type": "г",
    "latitude": "60.0191278",
    "longitude": "30.6456718"
  },
  {
    "district": "Северо-Западный",
    "region": "Ленинградская",
    "region_type": "обл",
    "city": "Выборг",
    "city_type": "г",
    "latitude": "60.7130801",
    "longitude": "28.7328336"
  },
  {
    "district": "Северо-Западный",
    "region": "Ленинградская",
    "region_type": "обл",
    "city": "Высоцк",
    "city_type": "г",
    "latitude": "60.6296236",
    "longitude": "28.5709314"
  },
  {
    "district": "Северо-Западный",
    "region": "Ленинградская",
    "region_type": "обл",
    "city": "Гатчина",
    "city_type": "г",
    "latitude": "59.565237",
    "longitude": "30.1282473"
  },
  {
    "district": "Северо-Западный",
    "region": "Ленинградская",
    "region_type": "обл",
    "city": "Ивангород",
    "city_type": "г",
    "latitude": "59.3766119",
    "longitude": "28.2231659"
  },
  {
    "district": "Северо-Западный",
    "region": "Ленинградская",
    "region_type": "обл",
    "city": "Каменногорск",
    "city_type": "г",
    "latitude": "60.950855",
    "longitude": "29.1308372"
  },
  {
    "district": "Северо-Западный",
    "region": "Ленинградская",
    "region_type": "обл",
    "city": "Кингисепп",
    "city_type": "г",
    "latitude": "59.3740435",
    "longitude": "28.6112444"
  },
  {
    "district": "Северо-Западный",
    "region": "Ленинградская",
    "region_type": "обл",
    "city": "Кириши",
    "city_type": "г",
    "latitude": "59.4742862",
    "longitude": "32.0624947"
  },
  {
    "district": "Северо-Западный",
    "region": "Ленинградская",
    "region_type": "обл",
    "city": "Кировск",
    "city_type": "г",
    "latitude": "59.8754216",
    "longitude": "30.981364"
  },
  {
    "district": "Северо-Западный",
    "region": "Ленинградская",
    "region_type": "обл",
    "city": "Коммунар",
    "city_type": "г",
    "latitude": "59.6215133",
    "longitude": "30.3934125"
  },
  {
    "district": "Северо-Западный",
    "region": "Ленинградская",
    "region_type": "обл",
    "city": "Кудрово",
    "city_type": "г",
    "latitude": "59.9075226",
    "longitude": "30.5121008"
  },
  {
    "district": "Северо-Западный",
    "region": "Ленинградская",
    "region_type": "обл",
    "city": "Лодейное Поле",
    "city_type": "г",
    "latitude": "60.7320936",
    "longitude": "33.5521022"
  },
  {
    "district": "Северо-Западный",
    "region": "Ленинградская",
    "region_type": "обл",
    "city": "Луга",
    "city_type": "г",
    "latitude": "58.7374031",
    "longitude": "29.8465776"
  },
  {
    "district": "Северо-Западный",
    "region": "Ленинградская",
    "region_type": "обл",
    "city": "Любань",
    "city_type": "г",
    "latitude": "59.3493847",
    "longitude": "31.2484801"
  },
  {
    "district": "Северо-Западный",
    "region": "Ленинградская",
    "region_type": "обл",
    "city": "Мурино",
    "city_type": "г",
    "latitude": "60.044862",
    "longitude": "30.4571456"
  },
  {
    "district": "Северо-Западный",
    "region": "Ленинградская",
    "region_type": "обл",
    "city": "Никольское",
    "city_type": "г",
    "latitude": "59.7043309",
    "longitude": "30.7874571"
  },
  {
    "district": "Северо-Западный",
    "region": "Ленинградская",
    "region_type": "обл",
    "city": "Новая Ладога",
    "city_type": "г",
    "latitude": "60.1100135",
    "longitude": "32.3141203"
  },
  {
    "district": "Северо-Западный",
    "region": "Ленинградская",
    "region_type": "обл",
    "city": "Отрадное",
    "city_type": "г",
    "latitude": "59.7726848",
    "longitude": "30.7988557"
  },
  {
    "district": "Северо-Западный",
    "region": "Ленинградская",
    "region_type": "обл",
    "city": "Пикалево",
    "city_type": "г",
    "latitude": "59.5132022",
    "longitude": "34.1772776"
  },
  {
    "district": "Северо-Западный",
    "region": "Ленинградская",
    "region_type": "обл",
    "city": "Подпорожье",
    "city_type": "г",
    "latitude": "60.9127549",
    "longitude": "34.1567664"
  },
  {
    "district": "Северо-Западный",
    "region": "Ленинградская",
    "region_type": "обл",
    "city": "Приморск",
    "city_type": "г",
    "latitude": "60.3660209",
    "longitude": "28.6135772"
  },
  {
    "district": "Северо-Западный",
    "region": "Ленинградская",
    "region_type": "обл",
    "city": "Приозерск",
    "city_type": "г",
    "latitude": "61.0330896",
    "longitude": "30.1587851"
  },
  {
    "district": "Северо-Западный",
    "region": "Ленинградская",
    "region_type": "обл",
    "city": "Светогорск",
    "city_type": "г",
    "latitude": "61.1111282",
    "longitude": "28.8725865"
  },
  {
    "district": "Северо-Западный",
    "region": "Ленинградская",
    "region_type": "обл",
    "city": "Сертолово",
    "city_type": "г",
    "latitude": "60.1446932",
    "longitude": "30.2095918"
  },
  {
    "district": "Северо-Западный",
    "region": "Ленинградская",
    "region_type": "обл",
    "city": "Сланцы",
    "city_type": "г",
    "latitude": "59.1178185",
    "longitude": "28.0881475"
  },
  {
    "district": "Северо-Западный",
    "region": "Ленинградская",
    "region_type": "обл",
    "city": "Сосновый Бор",
    "city_type": "г",
    "latitude": "59.8772884",
    "longitude": "29.1291619"
  },
  {
    "district": "Северо-Западный",
    "region": "Ленинградская",
    "region_type": "обл",
    "city": "Сясьстрой",
    "city_type": "г",
    "latitude": "60.1401739",
    "longitude": "32.5601559"
  },
  {
    "district": "Северо-Западный",
    "region": "Ленинградская",
    "region_type": "обл",
    "city": "Тихвин",
    "city_type": "г",
    "latitude": "59.6272904",
    "longitude": "33.5072731"
  },
  {
    "district": "Северо-Западный",
    "region": "Ленинградская",
    "region_type": "обл",
    "city": "Тосно",
    "city_type": "г",
    "latitude": "59.5407098",
    "longitude": "30.877812"
  },
  {
    "district": "Северо-Западный",
    "region": "Ленинградская",
    "region_type": "обл",
    "city": "Шлиссельбург",
    "city_type": "г",
    "latitude": "59.9443714",
    "longitude": "31.0333365"
  },
  {
    "district": "Центральный",
    "region": "Липецкая",
    "region_type": "обл",
    "city": "Грязи",
    "city_type": "г",
    "latitude": "52.4874097",
    "longitude": "39.9331142"
  },
  {
    "district": "Центральный",
    "region": "Липецкая",
    "region_type": "обл",
    "city": "Данков",
    "city_type": "г",
    "latitude": "53.2577411",
    "longitude": "39.1456184"
  },
  {
    "district": "Центральный",
    "region": "Липецкая",
    "region_type": "обл",
    "city": "Елец",
    "city_type": "г",
    "latitude": "52.6152411",
    "longitude": "38.5289342"
  },
  {
    "district": "Центральный",
    "region": "Липецкая",
    "region_type": "обл",
    "city": "Задонск",
    "city_type": "г",
    "latitude": "52.4004179",
    "longitude": "38.9205032"
  },
  {
    "district": "Центральный",
    "region": "Липецкая",
    "region_type": "обл",
    "city": "Лебедянь",
    "city_type": "г",
    "latitude": "53.0156117",
    "longitude": "39.143536"
  },
  {
    "district": "Центральный",
    "region": "Липецкая",
    "region_type": "обл",
    "city": "Липецк",
    "city_type": "г",
    "latitude": "52.610249",
    "longitude": "39.5947883"
  },
  {
    "district": "Центральный",
    "region": "Липецкая",
    "region_type": "обл",
    "city": "Усмань",
    "city_type": "г",
    "latitude": "52.0442648",
    "longitude": "39.726401"
  },